HSTR_MNNMB,ETC_PCMTT,임도명,시설거리(km),개설연도,FRRD_FCLTW,FRRD_DV_I,FRRD_DV_B,FRRD_INSTT,FRRD_MGC,FRRD_RGSNO,RBP_X,RBP_Y,REP_X,REP_Y,MAP_LABEL,FR_TH_DV,FR_TH_YR,FRRD_THM,Shape_Leng,지역,위도,경도,상세주소,읍면동
0.0,,어천,12.44,1992,3.5,1,1,62,1400481,동부_양양_1992_04,1077694.9733,2034664.8065,1081970.1521,2037782.2641,92양양_04,,,,5524.88625316,강원특별자치도,38.309055712838536,128.38866966401,"선유실리, 간성읍, 고성군, 강원특별자치도, 24739, 대한민국",간성읍
0.0,,탑동,3.0,2012,3.5,1,1,62,1400481,동부_양양_2012_01,1079858.7929,2036202.3899,1081225.2507,2037173.8601,12양양_01,,,,1180.57982347,강원특별자치도,38.32272118189599,128.41359026801652,"선유실리, 간성읍, 고성군, 강원특별자치도, 24739, 대한민국",간성읍
0.0,임도화,고성산,0.93,2016,3.5,1,2,62,1400481,동부_양양_2016_04,1083605.7333,2039098.5953,1082852.6656,2039426.3404,16양양_04,,,,857.887881518,강원특별자치도,38.34847754592987,128.45679330603448,"탑동길, 탑동리, 간성읍, 고성군, 강원특별자치도, 24739, 대한민국",간성읍
0.0,,장신,6.9,1991,3.5,1,1,62,1400481,동부_양양_1991_04,1077136.8939,2033228.6051,1076542.2808,2035866.3879,91양양_04,,,,2852.39976291,강원특별자치도,38.29616176365968,128.38213033780204,"흘리, 간성읍, 고성군, 강원특별자치도, 24742, 대한민국",간성읍
0.0,,탑동,2.0,2021,4.5,1,3,62,1400481,동부_양양_2021_02,1079028.4723,2036171.3668,1079812.06298,2037195.70483,21양양_02,,,,358.895613047,강원특별자치도,38.32251522599258,128.4040889680857,"선유실리, 간성읍, 고성군, 강원특별자치도, 24739, 대한민국",간성읍
0.0,,어천,3.1,1991,3.5,1,1,62,1400481,동부_양양_1991_05,1076137.1996,2033689.5718,1077694.9733,2034664.8065,91양양_05,,,,2361.5155275,강원특별자치도,38.30040112242496,128.37074880514217,"간성읍, 고성군, 강원특별자치도, 24742, 대한민국",간성읍
0.0,군부대 (전술도로)-임도화,향로봉,9.95,2009,3.5,1,2,62,1400481,동부_양양_2009_01,1075123.8228,2029746.8152,1071476.6164,2034130.4945,09양양_01,,,,7431.49337261,강원특별자치도,38.26495661832044,128.35874176538667,"북면, 인제군, 강원특별자치도, 24605, 대한민국",북면
0.0,,19서흥(뒷골),2.5,2019,4.0,1,1,61,1400440,북부_인제_2019-03,1057137.772,2024310.1779,1057775.8402,2025332.7444,19인제_03,,,,1997.2483766,강원특별자치도,38.21728644091577,128.15271895718647,"심적리, 서화면, 인제군, 강원특별자치도, 24600, 대한민국",서화면
0.0,((자료부재-임도화)),08대암산,9.8,2008,4.5,1,1,61,1400440,북부_인제_2008_04,1052905.6393,2018216.9949,1054464.1333,2023865.9214,08인제_04,,,,10327.5005752,강원특별자치도,38.1626328883642,128.1039217483025,"가아리, 인제읍, 인제군, 강원특별자치도, 24623, 대한민국",인제읍
0.0,,20원당,2.0,2020,4.0,1,3,61,1400727,북부_민북_2020_01,1051204.4791,2021075.1295,1051350.7444,2022353.3947,20민북_01,,,,2145.32513758,강원특별자치도,38.18848910228607,128.0847096133646,"숨골로310번길, 원당리, 동면, 양구군, 강원특별자치도, 24511, 대한민국",동면
0.0,,10덕곡,5.1,2010,3.0,1,2,61,1400727,북부_양구_2010_04,1045031.90222,2022106.17729,1045958.17114,2024363.50823,10양구_04,,,,332.643530851,강원특별자치도,38.19811098597214,128.0142924197694,"금강산로1505번길, 덕곡리, 동면, 양구군, 강원특별자치도, 24508, 대한민국",동면
0.0,,12상무룡,2.61,2012,3.0,1,2,61,1400727,북부_양구_2012_01,1037637.1092,2018625.3773,1037218.3123,2019559.1553,12양구_01,,,,2012.77124487,강원특별자치도,38.16708030188283,127.92965740002842,"상무룡로, 상무룡리, 양구읍, 양구군, 강원특별자치도, 24516, 대한민국",양구읍
0.0,,19금악,2.6,2019,4.0,1,1,61,1400727,북부_민북_2019_01,1038781.6012,2019139.3881,1039527.4087,2020241.5725,19민북_01,,,,1686.10432167,강원특별자치도,38.17166423170971,127.94275034913152,"군량리, 양구읍, 양구군, 강원특별자치도, 24514, 대한민국",양구읍
0.0,((자료부재-임도화)),군전술(도사un고지),4.2,2012,3.5,1,1,61,1400727,북부_양구_2012_09,1044193.3546,2022553.674,1042674.2486,2023957.1469,12양구_09,,,,467.685435568,강원특별자치도,38.20218549247138,128.00474387113357,"도고터널, 방산면, 양구군, 강원특별자치도, 24501, 대한민국",방산면
0.0,,23산불고방산,2.2,2023,4.5,1,3,61,1400727,북부_민북_2023_04,1044102.27888,2022294.00923,1043095.5824,2022602.1165,23민북_04,,,,359.704660601,강원특별자치도,38.19984979805363,128.00368758561646,"학령터널, 도사리, 방산면, 양구군, 강원특별자치도, 24512, 대한민국",방산면
0.0,,13상무룡(Ⅰ),1.6,2013,3.5,1,2,61,1400727,북부_양구_2013_02,1036948.6518,2018794.7939,1037112.8765,2019656.0268,13양구_02,,,,1238.76340315,강원특별자치도,38.168635641599764,127.921807110782,"상무룡로, 금악리, 양구읍, 양구군, 강원특별자치도, 24504, 대한민국",양구읍
0.0,,20명월,1.16,2020,3.0,1,2,61,1400438,북부_춘천_2020_07,1002483.3302,2016635.3757,1002455.6954,2017363.4479,20춘천_07,,,,18.2353622725,강원특별자치도,38.14992764342245,127.52834260339124,"수피령로, 다목리, 사내면, 화천군, 강원특별자치도, 24104, 대한민국",사내면
0.0,,15명월(만산령Ⅱ),1.6,2015,4.0,1,1,61,1400438,북부_춘천_2015_04,1002662.379,2016671.0814,1003184.2566,2016490.8173,15춘천_04,,,,325.428671438,강원특별자치도,38.150248936170115,127.5303862462471,"수피령로, 다목리, 사내면, 화천군, 강원특별자치도, 24104, 대한민국",사내면
0.0,,14만산령,6.79,2014,5.0,1,1,61,1400438,북부_춘천_2014_07,1004348.9873,2016022.425,1005965.6753,2018497.7183,14춘천_07,,,,765.442718127,강원특별자치도,38.14439625270464,127.54963186627131,"만산동로, 구운리, 상서면, 화천군, 강원특별자치도, 24105, 대한민국",상서면
0.0,,15구운,2.04,2015,3.0,1,2,61,1400438,북부_춘천_2015_06,1004884.2281,2016142.8738,1005245.974,2017111.893,15춘천_06,,,,819.153948013,강원특별자치도,38.14547907857919,127.55574100828645,"만산동로, 구운리, 상서면, 화천군, 강원특별자치도, 24105, 대한민국",상서면
0.0,,20파포,3.66,2020,4.0,1,1,61,1400438,북부_춘천_2020_05,1009024.0711,2015811.7523,1010862.7659,2016693.5284,20춘천_05,,,,3798.09020162,강원특별자치도,38.142462869897564,127.60298250957989,"만산동로, 구운리, 상서면, 화천군, 강원특별자치도, 24105, 대한민국",상서면
0.0,,95잠곡,4.0,1995,4.0,1,1,61,1400438,북부_춘천_1995_05,997558.814,2015860.2648,997655.8406,2016868.3006,95춘천_05,,,,1803.93076031,강원특별자치도,38.14294193670443,127.47214105121785,"근남면, 철원군, 강원특별자치도, 24065, 대한민국",근남면
0.0,,15명월(관사촌),2.14,2015,4.0,1,1,61,1400438,북부_춘천_2015_01,1002668.4747,2016592.1271,1001958.7016,2015661.5007,15춘천_01,,,,1760.44057391,강원특별자치도,38.149537329226966,127.53045552175857,"수피령로, 명월리, 사내면, 화천군, 강원특별자치도, 24148, 대한민국",사내면
0.0,((자료부재-임도화)),08용화동,2.01,2008,4.0,1,1,61,1400438,북부_춘천_2008_03,987330.8255,2016138.5846,986707.506012,2016503.73565,08춘천_03,,,,1414.19958424,강원특별자치도,38.14536466051591,127.35541393840126,"신철원리, 철원군, 강원특별자치도, 24051, 대한민국",신철원리
0.0,,92잠곡,8.4,1992,4.0,1,1,61,1400438,북부_춘천_1992_04,995708.7859,2014533.0424,995358.1433,2018554.2279,92춘천_04,,,,3993.22765008,강원특별자치도,38.13097319298958,127.45103642774387,"잠곡리, 근남면, 철원군, 강원특별자치도, 24065, 대한민국",근남면
0.0,,17신철원,3.32,2017,4.0,1,1,61,1400438,북부_춘천_2017_06,987042.0412,2016928.8054,985016.5536,2017241.5972,17춘천_06,,,,19.1124322679,강원특별자치도,38.15248253395609,127.35210383844888,"신철원리, 철원군, 강원특별자치도, 24051, 대한민국",신철원리
0.0,,석포(봉화-삼척),7.2,1993,4.0,1,1,63,1400456,남부_영주_1993_04,1146230.319,1896654.1788,1145089.3216,1899469.3827,93영주_04,,,,7303.3939753,강원특별자치도,37.057078283219376,129.14464702707633,"석포면, 봉화군, 경상북도, 대한민국",석포면
0.0,봉명관리소~3호선,9호선,0.6,2017,4.0,1,1,69,C010160,학술_강원_2017_02,1027686.5108,1975310.8065,1028122.9551,1975489.4503,17강원_02,,,,606.207609479,강원특별자치도,37.7770551289714,127.81439589753613,"봉명길, 동산면, 춘천시, 강원특별자치도, 24410, 대한민국",동산면
0.0,봉명관리소~3호선,9호선,0.6,2018,4.0,1,1,69,C010160,학술_강원_2018_02,1028167.5571,1975351.8665,1028122.9551,1975489.4503,18강원_02,,,,601.849851795,강원특별자치도,37.77741050591532,127.8198599657669,"봉명길, 동산면, 춘천시, 강원특별자치도, 24410, 대한민국",동산면
0.0,봉명관리소~3호선,9호선,0.6,2019,4.0,1,2,69,C010160,학술_강원_2019_01,1028685.116,1975220.2453,1028167.5571,1975351.8665,19강원_01,,,,626.457692864,강원특별자치도,37.77620809148394,127.8257318742663,"봉명리, 춘천시, 강원특별자치도, 24410, 대한민국",봉명리
0.0,연화사~임도5호선(사방댐),11호선,0.72,2024,4.5,1,3,69,C010160,학술_강원_2024_01,1030361.00608,1978875.65129,1030310.2829,1979374.0461,24강원_01,,,,716.884363768,강원특별자치도,37.809100324837786,127.84491514786305,"성동로, 북방리, 북방면, 홍천군, 강원특별자치도, 25113, 대한민국",북방면
0.0,"거지울~엄성골,산61-2-5,2000-2007",5호선,9.6,2000,4.0,1,1,69,C010160,학술_강원_2000_01,1030954.0444,1980289.9593,1029237.8978,1981307.6335,00강원_01,,,,9580.9069548,강원특별자치도,37.821827583349254,127.85171269471948,"북방리, 북방면, 홍천군, 강원특별자치도, 25113, 대한민국",북방면
0.0,"물터삼거리~면내,동산면원창리산1,준공:1998",4호선,6.18,1996,4.0,1,1,69,C010160,학술_강원_1996_02,1027887.5707,1976793.4008,1027258.3418,1978914.2526,96강원_02,,,,7702.11617713,강원특별자치도,37.790411777201115,127.81673603547401,"봉명리, 춘천시, 강원특별자치도, 24410, 대한민국",봉명리
0.0,7호선~원창저수지,8호선,1.86,2016,4.0,1,1,69,C010160,학술_강원_2016_02,1026230.4749,1978275.6701,1026429.3454,1977795.7372,16강원_02,,,,1923.38478662,강원특별자치도,37.803820694052426,127.79796929293275,"원창리, 춘천시, 강원특별자치도, 24409, 대한민국",원창리
0.0,7호선~종점,10호선,0.9,2020,4.0,1,1,69,C010160,학술_강원_2020_01,1026239.9279,1977561.4925,1025817.7024,1977285.5696,20강원_01,,,,971.307352528,강원특별자치도,37.79738347971772,127.79805080793189,"원창리, 춘천시, 강원특별자치도, 24409, 대한민국",원창리
0.0,4호선~종점,7호선,1.44,2015,4.0,1,1,69,C010160,학술_강원_2015_02,1026960.9845,1977205.8172,1026239.9279,1977561.4925,15강원_02,,,,1454.8689904,강원특별자치도,37.7941567437623,127.80622771642074,"봉명리, 춘천시, 강원특별자치도, 24410, 대한민국",봉명리
0.0,"봉명관리소~새목현,준공1993",1호선,4.46,1992,4.0,1,1,69,C010160,학술_강원_1992_01,1029179.5737,1977086.7258,1027748.71536,1975479.21768,92강원_01,,,,3906.49516248,강원특별자치도,37.79301517456967,127.83142168453205,"봉명리, 춘천시, 강원특별자치도, 24410, 대한민국",봉명리
0.0,"2호선~더운짐내기방향,30-5임,준공:1997",3호선,5.82,1996,4.0,1,1,69,C010160,학술_강원_1996_01,1028810.8612,1974334.0766,1029566.3825,1976624.8133,96강원_01,,,,4380.53131365,강원특별자치도,37.76821700648141,127.82712455294612,"봉명리, 춘천시, 강원특별자치도, 24410, 대한민국",봉명리
0.0,"새목현~북방,홍천북방면북방리산61-1,준공1995",2호선,7.33,1994,4.0,1,1,69,C010160,학술_강원_1994_01,1030931.3073,1978712.1705,1029272.2116,1976882.0385,94강원_01,,,,6914.63826664,강원특별자치도,37.80760772093315,127.8513869416691,"성동로, 북방리, 북방면, 홍천군, 강원특별자치도, 25113, 대한민국",북방면
0.0,2호선~산림환경교육센터,6호선,2.4,2013,4.0,1,1,69,C010160,학술_강원_2013_04,1030541.1345,1975033.0423,1030211.5005,1976544.4944,13강원_04,,,,2353.02303897,강원특별자치도,37.77446067259457,127.84679953985508,"강원도자연환경연구공원 생태문화탐방로 구절산코스, 동산면, 춘천시, 강원특별자치도, 24410, 대한민국",동산면
0.0,2호선~산림환경교육센터,6호선,1.15,2014,4.0,1,1,69,C010160,학술_강원_2014_02,1030355.9495,1974590.8195,1030541.1345,1975033.0423,14강원_02,,,,1121.50254965,강원특별자치도,37.77048105025973,127.84467826587456,"강원도자연환경연구공원 생태문화탐방로 구절산코스, 동산면, 춘천시, 강원특별자치도, 24410, 대한민국",동산면
0.0,연화사~임도5호선(사방댐),11호선,1.7,2022,4.0,1,1,69,C010160,학술_강원_2022_01,1029476.6539,1978285.0399,1030433.2422,1977907.2737,22강원_01,,,,1721.3565193,강원특별자치도,37.80380610602252,127.83484461919966,"북방리, 북방면, 홍천군, 강원특별자치도, 25113, 대한민국",북방면
0.0,연화사~임도5호선(사방댐),11호선,1.5,2023,4.0,1,1,69,C010160,학술_강원_2023_01,1030284.3634,1978531.6031,1029476.6539,1978285.0399,23강원_01,,,,1568.34595043,강원특별자치도,37.80600195333064,127.84403007930325,"북방리, 북방면, 홍천군, 강원특별자치도, 25113, 대한민국",북방면
0.0,연화사~임도5호선(사방댐),11호선,0.8,2023,4.5,1,3,69,C010160,학술_강원_2023_02,1030284.3634,1978531.6031,1030361.00608,1978875.65129,23강원_02,,,,800.441627326,강원특별자치도,37.80600195333064,127.84403007930325,"북방리, 북방면, 홍천군, 강원특별자치도, 25113, 대한민국",북방면
0.0,,22갈운,2.2,2022,4.5,1,3,61,1400442,북부_수원_2022_07,1026684.1812,1948055.4739,1027550.2398,1948783.0572,22수원_07,,,,2332.70750962,강원특별자치도,37.53142433264093,127.80201739899957,"경강로, 서원면, 양평군, 경기도, 대한민국",서원면
0.0,,22산수,2.2,2022,4.5,1,3,61,1400438,북부_춘천_2022_01,1013967.5987,1969748.831,1014157.6059,1970466.3602,22춘천_01,,,,1126.04556773,강원특별자치도,37.72723634703114,127.65850377889431,"산수리, 춘천시, 강원특별자치도, 24467, 대한민국",산수리
0.0,,18하오안,1.21,2018,3.5,1,2,61,1400441,북부-홍천-2018-07,1032504.7566,1963595.9761,1032076.6238,1963702.3054,18홍천_07,,,,1444.00871465,강원특별자치도,37.67130908451231,127.86858521150174,"중앙고속도로, 연봉리, 홍천읍, 홍천군, 강원특별자치도, 25117, 대한민국",홍천읍
0.0,,24발산,1.2,2024,3.0,1,2,61,1400438,북부_춘천_2024_12,1011281.3093,1968908.2418,1010952.4626,1969321.9594,24춘천_12,,,,1297.34426511,강원특별자치도,37.719696907604764,127.62800690768876,"한덕발산길, 남면, 춘천시, 강원특별자치도, 24469, 대한민국",
0.0,,24한덕,2.0,2024,4.5,1,3,61,1400438,북부_춘천_2024_01,1012824.50429,1969299.65773,1011760.347,1969132.1605,24춘천_01,,,,1936.85978589,강원특별자치도,37.723204544000694,127.64552410563687,"산수리, 춘천시, 강원특별자치도, 24467, 대한민국",산수리
0.0,,24운계,1.1,2024,4.5,1,3,61,1400441,북부_홍천_2024_07,1037378.762,1912338.7043,1037710.4474,1912994.0064,24홍천_07,,,,1140.91499992,강원특별자치도,37.2091153707283,127.92125445418408,"운계리, 원주시, 강원특별자치도, 26501, 대한민국",운계리
0.0,,24매지,1.84,2024,4.5,1,3,61,1400441,북부_홍천_2024_06,1037793.3358,1915798.3572,1037487.2554,1915125.6096,24홍천_06,,,,2077.00207464,강원특별자치도,37.24028341251339,127.92610194711749,"매지임도, 흥업면, 원주시, 강원특별자치도, 26494, 대한민국",흥업면
0.0,매지테마임도,98매지,3.01,1998,4.0,1,1,61,1400441,북부_홍천_1998_02,1035325.92,1915797.5582,1036878.2468,1916064.8323,98홍천_02,5,2009,레포츠_09_매지,2944.91713198,강원특별자치도,37.24037303979225,127.89828360044577,"북원로, 흥업면, 원주시, 강원특별자치도, 26500, 대한민국",흥업면
0.0,매지테마임도,99매지,3.96,1999,4.0,1,1,61,1400441,북부_홍천_1999_01,1036878.2468,1916064.8323,1037079.873,1916586.5616,99홍천_01,5,2009,레포츠_09_매지,3829.808522,강원특별자치도,37.24272204544597,127.91579819793007,"매지임도, 흥업면, 원주시, 강원특별자치도, 26494, 대한민국",흥업면
0.0,,17운남-운계,0.92,2017,4.0,1,1,61,1400441,북부-홍천-2017-07,1035496.5976,1911937.3777,1036003.4323,1912284.2717,17홍천_07,,,,1071.86367338,강원특별자치도,37.205571388748325,127.90002406170953,"운계다둔길, 귀래면, 원주시, 강원특별자치도, 26501, 대한민국",귀래면
0.0,,16운남,2.1,2016,4.0,1,1,61,1400441,북부-홍천-2016-06,1036003.4323,1912284.2717,1036950.4859,1912692.9819,16홍천_06,,,,2009.46636673,강원특별자치도,37.20867882719747,127.90575237703784,"운계다둔길, 귀래면, 원주시, 강원특별자치도, 26501, 대한민국",귀래면
0.0,,15운남,2.1,2015,4.0,1,1,61,1400441,북부_홍천_2015_07,1036950.4859,1912692.9819,1037497.1322,1912071.9787,15홍천_07,,,,2095.91964193,강원특별자치도,37.21232584877998,127.91644549730282,"운계리, 원주시, 강원특별자치도, 26501, 대한민국",운계리
0.0,,24병지방,1.4,2024,4.5,1,3,61,1400441,북부_홍천_2024_05,1051349.31263,1953618.66535,1051807.48,1954067.9226,24홍천_05,,,,1456.3407675,강원특별자치도,37.58052218843901,128.08156230158065,"삼거리, 갑천면, 횡성군, 강원특별자치도, 25252, 대한민국",갑천면
0.0,,96병지방,4.7,1996,4.0,1,1,61,1400441,북부_홍천_1996_02,1051916.072,1954933.7709,1049169.9173,1954970.6177,96홍천_02,,,,5507.99169991,강원특별자치도,37.59234351432835,128.0880741342067,"어답산로, 병지방리, 갑천면, 횡성군, 강원특별자치도, 25251, 대한민국",갑천면
0.0,,97병지방,3.96,1997,4.0,1,1,61,1400441,북부_홍천_1997_01,1053708.2611,1954818.8632,1051916.072,1954933.7709,97홍천_01,,,,2751.47474187,강원특별자치도,37.59120496021955,128.10836551557566,"율동리, 갑천면, 횡성군, 강원특별자치도, 25258, 대한민국",갑천면
0.0,,24율동,2.0,2024,4.5,1,3,61,1400441,북부_홍천_2024_04,1052986.4459,1954337.0516,1052304.56265,1953183.23855,24홍천_04,,,,2147.30624256,강원특별자치도,37.58690423312062,128.1001548961375,"율동리, 갑천면, 횡성군, 강원특별자치도, 25258, 대한민국",갑천면
0.0,,90율동,5.5,1990,4.0,1,1,61,1400441,북부_홍천_1990_03,1053443.5685,1953492.2301,1052535.2828,1955808.2902,90홍천_03,,,,5500.66079529,강원특별자치도,37.57926338881463,128.10527061283702,"율동리, 갑천면, 횡성군, 강원특별자치도, 25258, 대한민국",갑천면
0.0,,86병지방,6.58,1986,4.0,1,1,61,1400441,북부_홍천_1986_02,1051670.1493,1955921.6785,1051856.5889,1961499.4481,86홍천_02,,,,6562.75400444,강원특별자치도,37.60126141791317,128.0853583525068,"어답산로, 병지방리, 갑천면, 횡성군, 강원특별자치도, 25251, 대한민국",갑천면
0.0,,14병지방,2.08,2014,3.5,1,2,61,1400441,북부_홍천_2014_06,1048543.0087,1957620.9248,1048027.3738,1956882.0525,14홍천_06,,,,2038.79744264,강원특별자치도,37.616747253214186,128.05004607385803,"병지방리, 갑천면, 횡성군, 강원특별자치도, 25251, 대한민국",갑천면
0.0,,06병지방,1.5,2006,4.0,1,1,61,1400441,북부_홍천_2006_01,1048885.6718,1956301.2351,1048543.0087,1957620.9248,06홍천_01,,,,1520.32452557,강원특별자치도,37.60483462935226,128.05384044608175,"병지방서길, 병지방리, 갑천면, 횡성군, 강원특별자치도, 25251, 대한민국",갑천면
0.0,,16병지방,2.1,2016,4.0,1,1,61,1400441,북부-홍천-2016-03,1050127.3278,1960066.7149,1051305.7796,1959619.0386,16홍천_03,,,,2121.6850763,강원특별자치도,37.63870618386065,128.06816514987565,"병지방리, 갑천면, 횡성군, 강원특별자치도, 25251, 대한민국",갑천면
0.0,,17병지방,3.81,2017,4.0,1,1,61,1400441,북부-홍천-2017-04,1049866.2929,1959296.4515,1050127.3278,1960066.7149,17홍천_04,,,,3848.24113843,강원특별자치도,37.63177799514461,128.06515401346482,"병지방리, 갑천면, 횡성군, 강원특별자치도, 25251, 대한민국",갑천면
0.0,상안-병지방,10상안-병지방,2.4,2010,3.0,1,2,61,1400441,북부_홍천_2010_03,1049569.3279,1957477.1725,1049866.2929,1959296.4515,10홍천_03,,,,2160.34259901,강원특별자치도,37.61539682743181,128.0616651545208,"병지방서길, 병지방리, 갑천면, 횡성군, 강원특별자치도, 25251, 대한민국",갑천면
0.0,,17삽교,0.58,2017,4.0,1,1,61,1400441,북부-홍천-2017-08,1068043.6005,1945746.7,1068485.921,1945872.2141,17홍천_08,,,,579.968224006,강원특별자치도,37.508491012808605,128.26989156243926,"자포곡리, 둔내면, 횡성군, 강원특별자치도, 25261, 대한민국",둔내면
0.0,,18삽교,1.82,2018,4.0,1,1,61,1400441,북부-홍천-2018-06,1067133.1683,1945310.0957,1068043.6005,1945746.7,18홍천_06,,,,1702.78774351,강원특별자치도,37.50462264802637,128.25955127594537,"자포곡리, 둔내면, 횡성군, 강원특별자치도, 25261, 대한민국",둔내면
0.0,,10하오안,2.62,2010,3.0,1,2,61,1400441,북부_홍천_2010_06,1030019.4645,1962485.7179,1031405.1943,1962617.8847,10홍천_06,,,,2491.66062774,강원특별자치도,37.66138674730272,127.84035820655275,"설악로, 하오안리, 홍천읍, 홍천군, 강원특별자치도, 25117, 대한민국",홍천읍
0.0,,17하오안,3.98,2017,3.5,1,2,61,1400441,북부-홍천-2017-05,1031405.1943,1962617.8847,1032593.5822,1963670.1662,17홍천_05,,,,3699.55333305,강원특별자치도,37.662531619550236,127.8560749143158,"하오안리, 홍천읍, 홍천군, 강원특별자치도, 25117, 대한민국",홍천읍
0.0,,23산수1,2.0,2023,4.5,1,3,61,1400438,북부_춘천_2023_02,1013694.08561,1969790.42111,1012824.50429,1969299.65773,23춘천_02,,,,1917.51295868,강원특별자치도,37.727615342826766,127.65540075662528,"산수리, 춘천시, 강원특별자치도, 24467, 대한민국",산수리
0.0,,23산수2,1.4,2023,4.5,1,3,61,1400438,북부_춘천_2023_03,1013967.5987,1969748.831,1014258.66171,1969296.76487,23춘천_03,,,,1333.83554249,강원특별자치도,37.72723634703114,127.65850377889431,"산수리, 춘천시, 강원특별자치도, 24467, 대한민국",산수리
0.0,,18유현,1.5,2018,4.0,1,1,61,1400441,북부-홍천-2018-05,1031394.6211,1949499.0508,1031473.3995,1948606.6532,18홍천_05,,,,1516.91272424,강원특별자치도,37.54428754544032,127.85539206708572,"유현리, 서원면, 횡성군, 강원특별자치도, 25200, 대한민국",서원면
0.0,,17유현,0.5,2017,4.0,1,1,61,1400441,북부-홍천-2017-09,1031234.6546,1949752.6663,1031394.6211,1949499.0508,17홍천_09,,,,526.458861752,강원특별자치도,37.546578925839995,127.8535920496841,"유현리, 서원면, 횡성군, 강원특별자치도, 25200, 대한민국",서원면
0.0,,89유현,1.54,1989,4.0,1,1,61,1400441,북부_홍천_1989_05,1033416.2771,1949612.6236,1032571.6805,1950051.2171,89홍천_05,,,,1143.50684553,강원특별자치도,37.54524012847737,127.87828226166958,"서원면, 횡성군, 강원특별자치도, 25200, 대한민국",서원면
0.0,,88유현,2.68,1988,4.0,1,1,61,1400441,북부_홍천_1988_02,1033136.0485,1947789.674,1034277.0111,1948366.1675,88홍천_02,,,,2109.72186564,강원특별자치도,37.528819244366694,127.87502775557884,"유현리, 서원면, 횡성군, 강원특별자치도, 25200, 대한민국",서원면
0.0,,96유현,11.92,1996,4.0,1,1,61,1400441,북부_홍천_1996_04,1032253.6078,1947686.6523,1035955.4936,1949897.0912,96홍천_04,,,,11417.5573601,강원특별자치도,37.527921956441766,127.86503611568108,"유현리, 서원면, 횡성군, 강원특별자치도, 25200, 대한민국",서원면
0.0,,92덕밭재,9.94,1992,4.0,1,1,61,1400441,북부_홍천_1992_01,1033734.2835,1979838.0844,1032967.9122,1982965.6281,92홍천_01,,,,10777.3469154,강원특별자치도,37.81765628464766,127.88328124144994,"덕밭재길, 풍천리, 화촌면, 홍천군, 강원특별자치도, 25156, 대한민국",화촌면
0.0,덕밭재,13풍천(Ⅰ),3.43,2013,3.0,1,2,61,1400441,북부_홍천_2013_05,1032117.5584,1979952.8986,1033734.2835,1979838.0844,13홍천_05,,,,3315.7661164,강원특별자치도,37.81874944103371,127.86491782461525,"풍천리, 화촌면, 홍천군, 강원특별자치도, 25156, 대한민국",화촌면
0.0,,15초원,3.0,2015,4.0,1,1,61,1400441,북부_홍천_2015_05,1035865.5453,1950989.6642,1034299.2092,1950869.7453,15홍천_05,,,,2980.47961071,강원특별자치도,37.55755981634553,127.90607542988948,"상창봉리, 공근면, 횡성군, 강원특별자치도, 25203, 대한민국",공근면
0.0,,16초원,3.0,2016,4.0,1,1,61,1400441,북부-홍천-2016-04,1037363.3323,1950212.6537,1035865.5453,1950989.6642,16홍천_04,,,,2984.70319823,강원특별자치도,37.55049681709316,127.92299361222867,"초원리, 공근면, 횡성군, 강원특별자치도, 25209, 대한민국",공근면
0.0,,18초원-상창봉,3.9,2018,4.0,1,1,61,1400441,북부-홍천-2018-04,1037117.7526,1950924.5608,1037363.3323,1950212.6537,18홍천_04,,,,3939.05686925,강원특별자치도,37.556923405767,127.92024948181968,"초원리, 공근면, 횡성군, 강원특별자치도, 25209, 대한민국",공근면
0.0,,16창봉,2.5,2016,4.0,1,1,61,1400441,북부-홍천-2016-05,1036304.6217,1951866.3971,1037117.7526,1950924.5608,16홍천_05,,,,2252.04925672,강원특별자치도,37.5654449059321,127.91109002370698,"상창봉리, 공근면, 횡성군, 강원특별자치도, 25203, 대한민국",공근면
0.0,,15상창봉,3.5,2015,4.0,1,1,61,1400441,북부_홍천_2015_06,1035370.97,1952443.8342,1036304.6217,1951866.3971,15홍천_06,,,,3448.50588264,강원특별자치도,37.570685882152674,127.9005460656188,"상창봉리, 공근면, 횡성군, 강원특별자치도, 25203, 대한민국",공근면
0.0,,90상창봉,10.26,1990,4.0,1,1,61,1400441,북부_홍천_1990_02,1036533.3847,1952982.4693,1034580.4822,1953742.7112,90홍천_02,,,,9502.58326654,강원특별자치도,37.57549537751847,127.91373596869848,"상창봉리, 공근면, 횡성군, 강원특별자치도, 25203, 대한민국",공근면
0.0,,91유치,7.84,1991,4.0,1,1,61,1400441,북부_홍천_1991_03,1031595.605,1952510.0342,1034146.2583,1952077.3233,91홍천_03,,,,7707.5865322,강원특별자치도,37.571419880082175,127.85779694110893,"유치리, 남면, 홍천군, 강원특별자치도, 25110, 대한민국",남면
0.0,,21상창봉,2.6,2021,4.5,1,3,61,1400441,북부_홍천_2021_03,1033772.0928,1951062.3186,1032504.7835,1951747.1836,21홍천_03,,,,2586.2336083,강원특별자치도,37.558293817352045,127.88237687141488,"상창봉리, 공근면, 횡성군, 강원특별자치도, 25203, 대한민국",공근면
0.0,,20상창봉,1.76,2020,3.5,1,2,61,1400441,북부_홍천_2020_02,1033062.7528,1951644.6153,1033725.2558,1951810.4337,20홍천_02,,,,1839.42312225,강원특별자치도,37.563568015941875,127.87437194928427,"상창봉리, 공근면, 횡성군, 강원특별자치도, 25203, 대한민국",공근면
0.0,,10판대,5.0,2010,3.0,1,2,61,1400441,북부_홍천_2010_07,1026917.3805,1932245.7422,1027084.3563,1932136.7649,10홍천_07,,,,5077.72082325,강원특별자치도,37.388914953914224,127.80407917741906,"판대리, 원주시, 강원특별자치도, 26357, 대한민국",판대리
0.0,,19황둔,0.5,2019,4.0,1,1,61,1400441,북부-홍천-2019-09,1059270.4813,1914445.5104,1059062.3273,1915244.6462,19홍천_09,,,,929.451990821,강원특별자치도,37.22697077996226,128.16812666276454,"황둔리, 원주시, 강원특별자치도, 26508, 대한민국",황둔리
0.0,,87도사곡,0.57,1987,4.0,1,1,61,1400441,북부_홍천_1987_01,1027044.8488,1966521.5547,1026840.7843,1966765.5831,87홍천_01,,,,574.255578075,강원특별자치도,37.69785529380382,127.80678248511443,"도사곡리, 북방면, 홍천군, 강원특별자치도, 25116, 대한민국",북방면
0.0,,23오원,2.2,2023,4.5,1,3,61,1400441,북부_홍천_2023_04,1055259.87039,1937630.73844,1054762.71731,1936732.07935,23홍천_04,,,,1977.38602149,강원특별자치도,37.436194648406506,128.1246474683073,"오원리, 우천면, 횡성군, 강원특별자치도, 25250, 대한민국",우천면
0.0,,22오원,0.6,2022,4.5,1,3,61,1400441,북부_홍천_2022_17,1055339.2862,1938025.1419,1055259.87039,1937630.73844,22홍천_17,,,,523.574961634,강원특별자치도,37.43974474742797,128.12557471151538,"오원리, 우천면, 횡성군, 강원특별자치도, 25250, 대한민국",우천면
0.0,,22매지,1.22,2022,4.5,1,3,61,1400441,북부_홍천_2022_04,1037866.4458,1916414.7184,1037846.1827,1916856.3209,22홍천_04,,,,835.527174959,강원특별자치도,37.24583620550082,127.92695754619302,"매지임도, 흥업면, 원주시, 강원특별자치도, 26494, 대한민국",흥업면
0.0,,23매지2,1.3,2023,4.5,1,3,61,1400441,북부_홍천_2023_06,1037846.1827,1916856.3209,1037875.62206,1917459.41388,23홍천_06,,,,1215.49813061,강원특별자치도,37.249817546253624,127.9267515252483,"매지임도, 흥업면, 원주시, 강원특별자치도, 26494, 대한민국",흥업면
0.0,,23매지1,2.08,2023,4.5,1,3,61,1400441,북부_홍천_2023_05,1037875.62206,1917459.41388,1037944.3542,1918312.2321,23홍천_05,,,,2003.6881957,강원특별자치도,37.25525250514298,127.92711415997537,"매지리, 원주시, 강원특별자치도, 26494, 대한민국",매지리
0.0,,22매지,0.8,2022,4.5,1,3,61,1400441,북부_홍천_2022_18,1038214.2634,1919124.8088,1037944.3542,1918312.2321,22홍천_18,,,,1267.3029591,강원특별자치도,37.27025016112958,127.93101837683162,"매지리, 원주시, 강원특별자치도, 26494, 대한민국",매지리
0.0,,21서곡Ⅰ,1.1,2021,4.5,1,3,61,1400441,북부_홍천_2021_02,1038592.4914,1918888.4279,1038214.2634,1919124.8088,21홍천_02,,,,1136.34226385,강원특별자치도,37.268103872545986,127.9352720304193,"국립백운산자연휴양림산림문화휴양관A동, 백운산길, 판부면, 원주시, 강원특별자치도, 26402, 대한민국",판부면
0.0,,21서곡,1.1,2021,4.5,1,3,61,1400441,북부_홍천_2021_01,1039117.2958,1918126.1785,1038592.4914,1918888.4279,21홍천_01,,,,1139.81910779,강원특별자치도,37.26121123075339,127.94115088760368,"백운산길, 판부면, 원주시, 강원특별자치도, 26402, 대한민국",판부면
0.0,,97서곡,7.72,1997,4.0,1,1,61,1400441,북부_홍천_1997_02,1041183.7733,1918111.3038,1039126.31,1919969.4495,97홍천_02,,,,7582.18649218,강원특별자치도,37.26098802708037,127.9644543778723,"백운산길, 판부면, 원주시, 강원특별자치도, 26402, 대한민국",판부면
0.0,,14상안,3.14,2014,4.0,1,1,61,1400441,북부_홍천_2014_04,1066283.9034,1941124.6066,1065311.8408,1939758.6399,14홍천_04,,,,3189.36236872,강원특별자치도,37.46696058297556,128.249566358373,"방림면, 평창군, 강원특별자치도, 대한민국",방림면
0.0,,13상안,3.3,2013,4.0,1,1,61,1400441,북부_홍천_2013_01,1065311.8408,1939758.6399,1065908.749,1937793.951,13홍천_01,,,,3501.69038219,강원특별자치도,37.45471837287262,128.23845361994717,"조항리, 둔내면, 횡성군, 강원특별자치도, 25267, 대한민국",둔내면
0.0,,12상안,3.0,2012,4.0,1,1,61,1400441,북부_홍천_2012_03,1065908.749,1937793.951,1066917.0671,1936606.8786,12홍천_03,,,,2939.98109916,강원특별자치도,37.43696829827018,128.24502646996015,"안흥면, 횡성군, 강원특별자치도, 대한민국",안흥면
0.0,,19운남,2.16,2019,4.0,1,1,61,1400441,북부-홍천-2019-03,1038424.2103,1909016.7985,1037808.5139,1910167.8201,19홍천_03,,,,2076.28968602,강원특별자치도,37.179129639261525,127.93286525760594,"화당로, 귀래면, 원주시, 강원특별자치도, 27100, 대한민국",귀래면
0.0,,17운남,3.5,2017,4.0,1,1,61,1400441,북부-홍천-2017-03,1037808.5139,1910167.8201,1037325.7444,1911133.1963,17홍천_03,,,,3506.1272341,강원특별자치도,37.189529967074634,127.92598761484763,"운남리, 원주시, 강원특별자치도, 26503, 대한민국",운남리
0.0,,11운남,2.94,2011,3.0,1,2,61,1400441,북부_홍천_2011_06,1037046.2433,1911192.438,1036926.7852,1911887.8021,11홍천_06,,,,3020.13797846,강원특별자치도,37.19879633220182,127.91745018652381,"운계리, 원주시, 강원특별자치도, 26501, 대한민국",운계리
0.0,,83운남,3.66,1983,4.0,1,1,61,1400441,북부_홍천_1983_01,1036461.8567,1909361.0228,1037497.1322,1912071.9787,83홍천_01,,,,3324.64053475,강원특별자치도,37.18231114657291,127.91077583355829,"운남길, 귀래면, 원주시, 강원특별자치도, 26503, 대한민국",
0.0,,14구성포,3.5,2014,3.5,1,2,61,1400441,북부_홍천_2014_08,1033820.1854,1976845.4005,1033424.5034,1977887.3648,14홍천_08,,,,3495.95519553,강원특별자치도,37.79068005197334,127.88411749181478,"풍천리, 화촌면, 홍천군, 강원특별자치도, 25156, 대한민국",화촌면
0.0,,17가정(추경),0.9,2017,3.0,1,2,61,1400438,북부_춘천_2017_09,1006801.2993,1974752.9111,1007399.1389,1975296.309,17춘천_09,,,,925.77967245,강원특별자치도,37.77242079218637,127.57722784880168,"가정리, 춘천시, 강원특별자치도, 24468, 대한민국",가정리
0.0,,17가정,1.6,2017,3.0,1,2,61,1400438,북부_춘천_2017_07,1006755.504,1974564.3286,1006645.8371,1975011.1328,17춘천_07,,,,1235.05414628,강원특별자치도,37.770721391983095,127.57670609376143,"12, 남면, 춘천시, 강원특별자치도, 24468, 대한민국",
0.0,,17가정2,3.5,2017,4.0,1,1,61,1400438,북부_춘천_2017_02,1008717.5957,1974662.735,1007695.1337,1974889.547,17춘천_02,,,,3411.29263164,강원특별자치도,37.771591744728056,127.59898602941554,"가정리, 춘천시, 강원특별자치도, 24468, 대한민국",가정리
0.0,,18가정,3.5,2018,4.0,1,1,61,1400438,북부_춘천_2018_01,1007695.1337,1974889.547,1007244.5859,1976149.1214,18춘천_01,,,,3480.87854803,강원특별자치도,37.773645235587,127.5873786586062,"가정리, 춘천시, 강원특별자치도, 24468, 대한민국",가정리
0.0,,17가정1,1.99,2017,4.0,1,1,61,1400438,북부_춘천_2017_01,1008348.897,1972357.0274,1007585.6785,1971628.6645,17춘천_01,,,,2023.01357789,강원특별자치도,37.75081325796594,127.59477303795795,"가정리, 춘천시, 강원특별자치도, 24468, 대한민국",가정리
0.0,,16가정,2.1,2016,4.0,1,1,61,1400438,북부_춘천_2016_04,1008552.4992,1973360.3537,1008348.897,1972357.0274,16춘천_04,,,,2056.27954135,강원특별자치도,37.75985462042608,127.59709605607607,"가정리, 춘천시, 강원특별자치도, 24468, 대한민국",가정리
0.0,,15가정,2.1,2015,4.0,1,1,61,1400438,북부_춘천_2015_05,1008289.2258,1974207.6724,1008552.4992,1973360.3537,15춘천_05,,,,2132.04030276,강원특별자치도,37.76749414085945,127.59411680827927,"가정리, 춘천시, 강원특별자치도, 24468, 대한민국",가정리
0.0,강촌테마임도,89강촌,8.5,1989,3.0,1,1,61,1400438,북부_춘천_1989_05,1010260.3679,1977462.2725,1008289.2258,1974207.6724,89춘천_05,5,2017,레포츠_17_강촌,7786.90641685,강원특별자치도,37.79680855506819,127.61654339108244,"강촌문배길, 남산면, 춘천시, 강원특별자치도, 24465, 대한민국",
0.0,백양테마임도,93백양,8.68,1993,4.0,1,1,61,1400438,북부_춘천_1993_01,1007244.5859,1976149.1214,1004440.1627,1978963.6761,93춘천_01,5,2006,레포츠_06_백양,8868.22896183,강원특별자치도,37.78500175128811,127.58227525107576,"남산면, 춘천시, 강원특별자치도, 24464, 대한민국",
0.0,,18백양,1.26,2018,3.0,1,2,61,1400438,북부_춘천_2018_07,1007051.694,1977412.6049,1006444.0637,1977528.8996,18춘천_07,,,,1293.20369337,강원특별자치도,37.79639130599906,127.58009691197488,"서백길, 남산면, 춘천시, 강원특별자치도, 24464, 대한민국",
0.0,,14판대,1.5,2014,3.5,1,2,61,1400441,북부_홍천_2014_07,1026376.6601,1934584.793,1026235.6242,1935228.6136,14홍천_07,,,,1604.653731,강원특별자치도,37.410014001040715,127.79805435203764,"구재로, 지정면, 원주시, 강원특별자치도, 26357, 대한민국",지정면
0.0,,90장전평,1.0,1990,4.0,1,1,61,1400441,북부_홍천_1990_01,1031962.1142,1958887.8793,1031955.8924,1958997.8955,90홍천_01,,,,879.705751629,강원특별자치도,37.628892869824305,127.86222590716993,"높은터로, 장전평리, 홍천읍, 홍천군, 강원특별자치도, 25118, 대한민국",홍천읍
0.0,,11상오안,2.25,2011,3.0,1,2,61,1400441,북부_홍천_2011_03,1029165.8228,1959946.7701,1027988.6053,1960563.2635,11홍천_03,,,,2176.53013275,강원특별자치도,37.63853001213072,127.83057838526564,"상오안리, 홍천읍, 홍천군, 강원특별자치도, 25117, 대한민국",홍천읍
0.0,,10상오안,3.18,2010,3.0,1,2,61,1400441,북부_홍천_2010_04,1027988.6053,1960563.2635,1028575.637,1961420.627,10홍천_04,,,,3168.51480507,강원특별자치도,37.64412329096726,127.81725910065768,"상오안리, 홍천읍, 홍천군, 강원특별자치도, 25117, 대한민국",홍천읍
0.0,,94상오안,0.38,1994,4.0,1,1,61,1400441,북부_홍천_1994_03,1028673.3058,1961321.7907,1028316.1287,1961646.8014,94홍천_03,,,,554.519015376,강원특별자치도,37.650938994255874,127.82505006382422,"상오안리, 홍천읍, 홍천군, 강원특별자치도, 25117, 대한민국",홍천읍
0.0,,94하오안,8.36,1994,4.0,1,1,61,1400441,북부_홍천_1994_04,1030250.4798,1963670.3779,1026396.3045,1963941.3929,94홍천_04,,,,8415.50661693,강원특별자치도,37.67205679695247,127.84302653423596,"하오안리, 홍천읍, 홍천군, 강원특별자치도, 25117, 대한민국",홍천읍
0.0,,68도사곡,9.0,1968,4.0,1,1,61,1400441,북부_홍천_1968_01,1026415.192,1960164.9606,1027044.8488,1966521.5547,68홍천_01,,,,8733.58086146,강원특별자치도,37.64057987048335,127.79940981743258,"상오안리, 홍천읍, 홍천군, 강원특별자치도, 25117, 대한민국",홍천읍
0.0,,91상오안,18.2,1991,4.0,1,1,61,1400441,북부_홍천_1991_01,1032078.3208,1957683.2877,1026825.2938,1960197.1797,91홍천_01,,,,18166.8865254,강원특별자치도,37.61803147907109,127.86348997888895,"삼마치리, 홍천읍, 홍천군, 강원특별자치도, 25118, 대한민국",홍천읍
0.0,,89장전평,1.63,1989,4.0,1,1,61,1400441,북부_홍천_1989_03,1032123.0967,1956902.4535,1032364.6025,1957992.7042,89홍천_03,,,,1339.29330626,강원특별자치도,37.61099201513234,127.86396303566053,"높은터로, 삼마치리, 홍천읍, 홍천군, 강원특별자치도, 25118, 대한민국",홍천읍
0.0,,92월운,7.02,1992,4.0,1,1,61,1400441,북부_홍천_1992_02,1037419.9752,1957937.9452,1035298.9615,1955727.6,92홍천_02,,,,6878.79760112,강원특별자치도,37.620124802377866,127.92402964197095,"월운리, 영귀미면, 홍천군, 강원특별자치도, 25153, 대한민국",영귀미면
0.0,,93월운,5.46,1993,4.0,1,1,61,1400441,북부_홍천_1993_01,1039553.7375,1958460.5047,1037419.9752,1957937.9452,93홍천_01,,,,5419.16688872,강원특별자치도,37.62474537627358,127.94823628448187,"중앙고속도로, 월운리, 영귀미면, 홍천군, 강원특별자치도, 25153, 대한민국",영귀미면
0.0,,91삼마치,6.47,1991,4.0,1,1,61,1400441,북부_홍천_1991_02,1035413.6123,1955198.6565,1033916.9424,1955506.3285,91홍천_02,,,,6528.48940868,강원특별자치도,37.59551433255005,127.90116215974746,"삼마치리, 공근면, 횡성군, 강원특별자치도, 25119, 대한민국",공근면
0.0,유현(풍수원),11유현,0.9,2011,3.0,1,2,61,1400441,북부_홍천_2011_05,1027156.8056,1947143.1902,1026873.5003,1946618.7632,11홍천_05,,,,837.498344578,강원특별자치도,37.52318766718516,127.80733285821775,"서원서로, 서원면, 횡성군, 강원특별자치도, 25200, 대한민국",서원면
0.0,,14창촌,2.8,2014,3.5,1,2,61,1400441,북부_홍천_2014_09,1029875.8749,1944582.5077,1030785.1964,1944721.4428,14홍천_09,,,,2713.04362444,강원특별자치도,37.500022896280065,127.83799992884589,"서원면, 횡성군, 강원특별자치도, 25201, 대한민국",서원면
0.0,,92창촌,9.18,1992,4.0,1,1,61,1400441,북부_홍천_1992_04,1030285.8867,1944002.5015,1029945.7311,1942902.3563,92홍천_04,,,,10299.428489,강원특별자치도,37.494781642033146,127.8426146258603,"서원면, 횡성군, 강원특별자치도, 25201, 대한민국",서원면
0.0,,94손곡,2.16,1994,4.0,1,1,61,1400441,북부_홍천_1994_06,1028240.1809,1911109.8841,1029330.1674,1911710.0348,94홍천_06,,,,2086.79546663,강원특별자치도,37.1983602920701,127.8182188475087,"손곡리, 원주시, 강원특별자치도, 26498, 대한민국",손곡리
0.0,,94상안,6.16,1994,4.0,1,1,61,1400441,북부_홍천_1994_05,1060679.7452,1933102.5899,1062871.6527,1933966.7644,94홍천_05,,,,6207.00394115,강원특별자치도,37.39504214400621,128.18553680959968,"안흥면, 횡성군, 강원특별자치도, 25270, 대한민국",안흥면
0.0,,95상안,4.0,1995,4.0,1,1,61,1400441,북부_홍천_1995_05,1062976.9993,1933816.1132,1062976.9993,1933816.1132,95홍천_05,,,,4863.90523517,강원특별자치도,37.401319910429265,128.211549321732,"상안리, 안흥면, 횡성군, 강원특별자치도, 25270, 대한민국",안흥면
0.0,,93상안,9.0,1993,4.0,1,1,61,1400441,북부_홍천_1993_04,1064858.467,1932826.0104,1066821.8085,1936112.4399,93홍천_04,,,,9016.06326887,강원특별자치도,37.3922661961512,128.2327187453773,"상안리, 안흥면, 횡성군, 강원특별자치도, 25270, 대한민국",안흥면
0.0,,13원창,2.9,2013,3.0,1,2,61,1400438,북부_춘천_2013_04,1022458.6253,1978385.6025,1022458.6253,1978385.6025,13춘천_04,,,,2845.37792768,강원특별자치도,37.80491210635533,127.75512619311009,"구암길, 동산면, 춘천시, 강원특별자치도, 24409, 대한민국",동산면
0.0,,90방하,2.7,1990,3.0,1,1,61,1400438,북부_춘천_1990_08,1003790.9807,1972402.0823,1004071.4312,1974454.2973,90춘천_08,,,,2624.21714613,강원특별자치도,37.751249597249085,127.54303381637389,"5, 남산면, 춘천시, 강원특별자치도, 24464, 대한민국",
0.0,,21가정,2.3,2021,3.0,1,2,61,1400438,북부_춘천_2021_08,1005243.5023,1973750.4132,1005324.9025,1973013.6272,21춘천_08,,,,1900.45313789,강원특별자치도,37.76339529116775,127.55953203723502,"방하로, 남면, 춘천시, 강원특별자치도, 24464, 대한민국",
0.0,,93슬어니,2.62,1993,4.0,1,1,61,1400438,북부_춘천_1993_02,1004884.5096,1974440.3652,1005815.7877,1972967.4882,93춘천_02,,,,2520.99023549,강원특별자치도,37.76961599241923,127.55546086382226,"방하로, 남산면, 춘천시, 강원특별자치도, 24464, 대한민국",
0.0,,95방하(Ⅱ),3.97,1995,3.0,1,1,61,1400438,북부_춘천_1995_04,1004884.5096,1974440.3652,1004402.4009,1976616.1384,95춘천_04,,,,4976.63841632,강원특별자치도,37.76961599241923,127.55546086382226,"방하로, 남산면, 춘천시, 강원특별자치도, 24464, 대한민국",
0.0,,95방하(Ⅰ),9.3,1995,3.0,1,1,61,1400438,북부_춘천_1995_03,1004757.2955,1976187.3006,1004341.6514,1978746.5433,95춘천_03,,,,7914.42365836,강원특별자치도,37.78536220736034,127.55402787783767,"방하리, 춘천시, 강원특별자치도, 24464, 대한민국",방하리
0.0,,96운남,1.71,1996,4.0,1,1,61,1400441,북부_홍천_1996_03,1037579.9116,1908859.0287,1037526.5273,1909001.4761,96홍천_03,,,,1414.42609789,강원특별자치도,37.177741880712524,127.92334617313823,"내창로, 귀래면, 원주시, 강원특별자치도, 26503, 대한민국",귀래면
0.0,,09상오안,2.06,2009,3.0,1,2,61,1400441,북부_홍천_2009_01,1030494.6912,1957705.2979,1030086.5049,1959153.2194,09홍천_01,,,,2345.09641271,강원특별자치도,37.618283774156424,127.84554657733705,"장전평리, 홍천읍, 홍천군, 강원특별자치도, 25118, 대한민국",홍천읍
0.0,,두산,2.0,2023,4.5,1,3,62,1400449,동부_영월_2023_04,1059213.2824,1920353.6946,1058792.1343,1920683.5768,23영월_04,,,,1986.08741752,강원특별자치도,37.28022741687263,128.16795192173282,"두산리, 무릉도원면, 영월군, 강원특별자치도, 26200, 대한민국",무릉도원면
0.0,,두산,2.0,2024,4.5,1,3,62,1400449,동부_영월_2024_06,1059213.2824,1920353.6946,1058046.0691,1920067.5867,24영월_06,,,,1941.0546845,강원특별자치도,37.28022741687263,128.16795192173282,"두산리, 무릉도원면, 영월군, 강원특별자치도, 26200, 대한민국",무릉도원면
0.0,,두산,2.05,2024,4.5,1,3,62,1400449,동부_영월_2024_01,1058329.954,1920964.1959,1058206.8969,1922029.859,24영월_01,,,,2081.10369533,강원특별자치도,37.28578591516738,128.15803610284593,"두산리, 무릉도원면, 영월군, 강원특별자치도, 26200, 대한민국",무릉도원면
0.0,,내리,4.0,1989,4.0,1,1,62,1400449,동부_영월_1989_01,1112264.6871,1893913.5963,1111680.2549,1897426.4069,89영월_01,,,,4023.41800243,강원특별자치도,37.037060709920475,128.76232490715392,"우구치리, 춘양면, 봉화군, 경상북도, 대한민국",춘양면
0.0,,와석,3.5,2013,4.0,1,1,62,1400449,동부_영월_2013_01,1102451.9233,1897564.0858,1103942.1488,1898442.6664,13영월_01,,,,3106.65632352,강원특별자치도,37.07108330147861,128.6525071585865,"김삿갓면, 영월군, 강원특별자치도, 대한민국",김삿갓면
0.0,,내리,2.0,2014,4.0,1,1,62,1400449,동부_영월_2014_02,1103065.9793,1899464.8351,1102824.8068,1898127.19,14영월_02,,,,1986.2564724,강원특별자치도,37.08814640937152,128.65967446007025,"외룡리, 김삿갓면, 영월군, 강원특별자치도, 26247, 대한민국",김삿갓면
0.0,,두산,1.5,2005,4.0,1,1,62,1400449,동부_영월_2005_01,1055744.4832,1922017.4916,1055228.3097,1922206.5691,05영월_01,,,,1618.21161706,강원특별자치도,37.29543828482772,128.12894936943445,"두산리, 무릉도원면, 영월군, 강원특별자치도, 26200, 대한민국",무릉도원면
0.0,,두산,1.54,2006,4.0,1,1,62,1400449,동부_영월_2006_01,1055228.3097,1922206.5691,1055386.704,1923005.6167,06영월_01,,,,1491.60916466,강원특별자치도,37.29717332771937,128.12313990308405,"무릉도원면, 영월군, 강원특별자치도, 대한민국",무릉도원면
0.0,,두산,1.04,2008,4.0,1,1,62,1400449,동부_영월_2008_01,1055386.704,1923005.6167,1055117.3573,1923545.5232,08영월_01,,,,1002.76400077,강원특별자치도,37.304366067606416,128.12498656087214,"무릉도원면, 영월군, 강원특별자치도, 대한민국",무릉도원면
0.0,,두산,1.6,2007,4.0,1,1,62,1400449,동부_영월_2007_01,1055117.3573,1923545.5232,1054985.0931,1924372.8756,07영월_01,,,,1553.03672779,강원특별자치도,37.3092484877228,128.1219874858891,"무릉도원면, 영월군, 강원특별자치도, 대한민국",무릉도원면
0.0,"검수도면 확인 / 2006년 당시 '산불진화진입로'로 시공되었다가, 이후 간선임도로 변경된 것으로 보임",두산,0.6,2006,4.0,1,1,62,1400449,동부_영월_2006_02,1054985.0931,1924372.8756,1055324.2882,1924444.8199,06영월_02,,,,521.343514369,강원특별자치도,37.31671359953141,128.12055628862876,"무릉도원면, 영월군, 강원특별자치도, 대한민국",무릉도원면
0.0,,두산,1.3,2003,4.0,1,1,62,1400449,동부_영월_2003_01,1055324.2882,1924444.8199,1055658.0934,1924697.2609,03영월_01,,,,1296.46553102,강원특별자치도,37.31734192655216,128.12438956781955,"무릉도원면, 영월군, 강원특별자치도, 대한민국",무릉도원면
0.0,,두산,1.0,1999,4.0,1,1,62,1400449,동부_영월_1999_01,1055658.0934,1924697.2609,1055471.1321,1925200.3092,99영월_01,,,,913.923769826,강원특별자치도,37.319597340709294,128.12817562149996,"혜운사, 태종로, 강림리, 강림면, 횡성군, 강원특별자치도, 25273, 대한민국",강림면
0.0,,두산,2.02,1998,4.0,1,1,62,1400449,동부_영월_1998_01,1055471.1321,1925200.3092,1056300.4536,1924754.2952,98영월_01,,,,2023.4667378,강원특별자치도,37.324142698615724,128.12610324483234,"무릉도원면, 영월군, 강원특별자치도, 대한민국",무릉도원면
0.0,,두산,2.0,2023,3.0,1,2,62,1400449,동부_영월_2023_09,1056023.5024,1925241.2354,1056977.93916,1924746.16671,23영월_09,,,,2063.50479788,강원특별자치도,37.324478429383575,128.13234060005956,"혜운사, 태종로, 강림리, 강림면, 횡성군, 강원특별자치도, 25272, 대한민국",강림면
0.0,,법흥,2.93,2012,4.0,1,1,62,1400449,동부_영월_2012_01,1066767.1723,1927418.775,1067969.6135,1928366.6479,12영월_01,,,,2921.49696229,강원특별자치도,37.343394743976084,128.25379232125633,"법흥리, 무릉도원면, 영월군, 강원특별자치도, 26201, 대한민국",무릉도원면
0.0,,법흥,4.0,2011,4.0,1,1,62,1400449,동부_영월_2011_01,1066290.5163,1925932.6214,1066767.1723,1927418.775,11영월_01,,,,3961.53106152,강원특별자치도,37.330033990251174,128.24827846406058,"도원리, 무릉도원면, 영월군, 강원특별자치도, 26201, 대한민국",무릉도원면
0.0,대장유지 기준에 따른 분할,법흥,1.1,1975,4.0,1,1,62,1400449,동부_영월_1975_05,1067295.9606,1925697.2736,1066290.5163,1925932.6214,75영월_05,,,,1099.60155927,강원특별자치도,37.32784045146239,128.25960552361968,"무릉법흥로, 법흥리, 무릉도원면, 영월군, 강원특별자치도, 26201, 대한민국",무릉도원면
0.0,"임도화->간선,임도화(용도전환)",와석,2.91,2008,4.0,1,1,62,1400449,동부_영월_2008_06,1102451.9233,1897564.0858,1101082.8714,1899775.6203,08영월_06,,,,3004.12919026,강원특별자치도,37.07108330147861,128.6525071585865,"김삿갓면, 영월군, 강원특별자치도, 대한민국",김삿갓면
0.0,,와석,2.3,2023,4.5,1,3,62,1400449,동부_영월_2023_05,1102442.2643,1897561.1408,1101041.74574,1898155.86906,23영월_05,,,,2323.40821127,강원특별자치도,37.07105781532098,128.65239812046366,"김삿갓면, 영월군, 강원특별자치도, 대한민국",김삿갓면
0.0,"검수도면(PDF) 확인 결과, (삿갓봉_2012_2.2km)와 합하여 총 2.7km로 시공된 임도 / 공사비(국비) 186,663?",삿갓봉,0.5,2012,3.0,1,2,62,1400449,동부_영월_2012_03,1063658.6356,1930888.4763,1063242.8471,1931301.0357,12영월_03,,,,596.810290569,강원특별자치도,37.374886154456846,128.21899823368398,"운학리, 무릉도원면, 영월군, 강원특별자치도, 26200, 대한민국",무릉도원면
0.0,"검수도면(PDF) 확인 결과, (삿갓봉_2012_2.2km)와 합하여 총 2.7km로 시공된 임도 / 공사비(국비) 186,663?",삿갓봉,2.2,2012,3.0,1,2,62,1400449,동부_영월_2012_02,1063303.6291,1931367.4342,1064936.61761,1931839.45291,12영월_02,,,,2232.95955803,강원특별자치도,37.379227381602234,128.21502984859367,"운학리, 무릉도원면, 영월군, 강원특별자치도, 26200, 대한민국",무릉도원면
0.0,대장유지 기준에 따른 분할,삿갓봉,3.1,1975,4.0,1,1,62,1400449,동부_영월_1975_01,1063303.6291,1931367.4342,1062317.3409,1932381.0262,75영월_01,,,,3100.10329161,강원특별자치도,37.379227381602234,128.21502984859367,"운학리, 무릉도원면, 영월군, 강원특별자치도, 26200, 대한민국",무릉도원면
0.0,,운학,2.29,2019,3.0,1,2,62,1400449,동부_영월_2019_06,1061177.027,1931565.1257,1062301.8155,1932262.9292,19영월_06,,,,2290.68223614,강원특별자치도,37.38115199838589,128.19102733643672,"도원운학로, 무릉도원면, 영월군, 강원특별자치도, 26200, 대한민국",무릉도원면
0.0,,삿갓봉,2.0,2021,4.5,1,3,62,1400449,동부_영월_2021_01,1062758.45523,1932077.43807,1063972.8893,1932139.175,21영월_01,,,,1979.00413029,강원특별자치도,37.385663825507976,128.20893265426855,"운학리, 무릉도원면, 영월군, 강원특별자치도, 26200, 대한민국",무릉도원면
0.0,,운학,2.64,2022,4.5,1,3,62,1400449,동부_영월_2022_04,1061988.5163,1932184.4105,1062758.45523,1932077.43807,22영월_04,,,,2607.28302035,강원특별자치도,37.386679803820456,128.2002448273307,"운학리, 무릉도원면, 영월군, 강원특별자치도, 26200, 대한민국",무릉도원면
0.0,대장유지 기준에 따른 분할,삿갓봉,1.1,1975,4.0,1,1,62,1400449,동부_영월_1975_02,1061091.517,1930596.2621,1061980.0865,1931170.2148,75영월_02,,,,1112.94685243,강원특별자치도,37.372425077014576,128.18998151661012,"무릉도원면, 영월군, 강원특별자치도, 26200, 대한민국",무릉도원면
0.0,대장유지 기준에 따른 분할,삿갓봉,0.96,1975,4.0,1,1,62,1400449,동부_영월_1975_03,1062277.3333,1929405.213,1061364.1502,1929090.9905,75영월_03,,,,988.677006672,강원특별자치도,37.36161103828657,128.2032732729084,"손이골길, 운학리, 무릉도원면, 영월군, 강원특별자치도, 26200, 대한민국",무릉도원면
0.0,,두산,7.5,2010,3.0,1,2,62,1400449,동부_영월_2010_01,1056036.8411,1921602.5883,1054890.4791,1922217.5221,10영월_01,,,,7547.10840656,강원특별자치도,37.29168100810764,128.1322164820739,"두산리, 무릉도원면, 영월군, 강원특별자치도, 26200, 대한민국",무릉도원면
0.0,,두산,2.0,2014,3.0,1,2,62,1400449,동부_영월_2014_01,1058384.2408,1922186.4863,1057384.0192,1921963.2453,14영월_01,,,,1936.69395006,강원특별자치도,37.296799487196864,128.15874454014147,"두산리, 무릉도원면, 영월군, 강원특별자치도, 26200, 대한민국",무릉도원면
0.0,,두산,3.5,2016,3.0,1,2,62,1400449,동부_영월_2016_02,1057384.0192,1921963.2453,1056036.8411,1921602.5883,16영월_02,,,,3480.47146673,강원특별자치도,37.29484959865984,128.1474425405805,"두산리, 무릉도원면, 영월군, 강원특별자치도, 26200, 대한민국",무릉도원면
0.0,,솟때봉,14.12,1994,3.5,1,1,62,1400448,동부_평창_1994_04,1066941.599,1936643.2842,1065931.2563,1942098.275,94평창_04,,,,14280.0769253,강원특별자치도,37.42652319392643,128.25659639209368,"문재터널, 방림면, 평창군, 강원특별자치도, 25366, 대한민국",방림면
0.0,,두산,2.08,2023,4.0,1,1,62,1400449,동부_영월_2023_01,1055483.6966,1922617.7337,1055588.6175,1923332.9553,23영월_01,,,,2125.25862235,강원특별자치도,37.300864127083514,128.12605198836343,"두산리, 무릉도원면, 영월군, 강원특별자치도, 26200, 대한민국",무릉도원면
0.0,,의풍,2.1,2017,4.0,1,1,64,1400466,중부_단양_2017_02,1099326.7207,1897924.3995,1099372.9107,1899114.3058,17단양_02,,,,2083.32142231,강원특별자치도,37.07466702832629,128.61740481263178,"의풍리, 단양군, 충청북도, 27019, 대한민국",의풍리
0.0,기타_운반로구조개선,검성조림지_운반로_구조개선,1.36,2024,4.0,1,1,63,1400459,남부_울진_2024_12,1163445.0287,1906743.4232,1163424.044,1906704.9824,24울진_12,,,,1365.44922956,강원특별자치도,37.145136913682784,129.34037248209074,"월천리, 삼척시, 강원특별자치도, 25960, 대한민국",월천리
0.0,"현장조사완료(트랙반영하여수정),본선",강릉14,1.54,2023,4.0,1,1,68,1400573,품종_강릉_2023_01,1117036.1736,1954136.0566,1117021.3401,1954623.2145,23강릉_01,,,,1619.6645364,강원특별자치도,37.57917611748798,128.82545752379878,"송현리, 강릉시, 강원특별자치도, 25643, 대한민국",송현리
0.0,,덕두원2,0.92,1981,4.0,1,1,68,1400573,품종_춘천_1980_02,1010396.083,1987435.793,1010623.9081,1987955.2017,81춘천_02,,,,1089.18588958,강원특별자치도,37.8866995961958,127.6182283295734,"서면, 춘천시, 강원특별자치도, 24462, 대한민국",
0.0,,덕두원8,1.0,2022,3.0,1,2,68,1400573,품종_춘천_2022_02,1009915.8807,1987980.4833,1009552.1519,1987234.1644,22춘천_02,,,,1028.30082516,강원특별자치도,37.89161427649291,127.61277477863075,"덕두원리, 춘천시, 강원특별자치도, 24462, 대한민국",덕두원리
0.0,,덕두원5,0.71,1990,4.0,1,1,68,1400573,품종_춘천_1990_01,1010264.6307,1988294.8653,1010320.1716,1987872.89,90춘천_01,,,,716.927813643,강원특별자치도,37.894443949167254,127.61674563118837,"덕두원리, 춘천시, 강원특별자치도, 24462, 대한민국",덕두원리
0.0,,덕두원3,1.18,1982,4.0,1,1,68,1400573,품종_춘천_1980_03,1010623.9081,1987955.2017,1010586.5385,1988644.0011,82춘천_03,,,,1236.11208104,강원특별자치도,37.891378422473615,127.62082689070544,"서면, 춘천시, 강원특별자치도, 24462, 대한민국",
0.0,멀티라인,덕두원7,3.34,2011,3.0,1,2,68,1400573,품종_춘천_2011_01,1010365.062,1987746.1167,1010821.591,1988191.886,11춘천_01,,,,3413.54882598,강원특별자치도,37.88949691388194,127.61788000630105,"서면, 춘천시, 강원특별자치도, 24462, 대한민국",
0.0,,덕두원1,1.04,1980,4.0,1,1,68,1400573,품종_춘천_1980_01,1011216.6172,1987086.9738,1010396.083,1987435.793,80춘천_01,,,,1238.05819866,강원특별자치도,37.88354592852272,127.62755432240394,"서면, 춘천시, 강원특별자치도, 24462, 대한민국",
0.0,,덕두원4,1.04,1983,4.0,1,1,68,1400573,품종_춘천_1980_04,1010586.5385,1988644.0011,1011057.1336,1988654.8958,83춘천_04,,,,776.060352271,강원특별자치도,37.89758703603102,127.62041199490331,"덕두원리, 춘천시, 강원특별자치도, 24462, 대한민국",덕두원리
0.0,,덕두원6,2.21,1991,4.0,1,1,68,1400573,품종_춘천_1990_02,1010491.1612,1986815.0635,1010320.1716,1987872.89,91춘천_02,,,,2104.66442216,강원특별자치도,37.88110383380566,127.61930056814471,"서면, 춘천시, 강원특별자치도, 24462, 대한민국",
0.0,,덕두원8,0.84,2022,3.0,1,2,68,1400573,품종_춘천_2022_03,1010307.8771,1988526.9458,1010223.01608,1989099.44069,22춘천_03,,,,863.500547595,강원특별자치도,37.896535211556966,127.61724081432564,"덕두원리, 춘천시, 강원특별자치도, 24462, 대한민국",덕두원리
0.0,,덕두원8,1.2,2022,3.0,1,2,68,1400573,품종_춘천_2022_01,1009722.4693,1986894.3111,1009951.068,1987896.6052,22춘천_01,,,,1310.31724752,강원특별자치도,37.881826631003435,127.61056044744497,"덕두원리, 춘천시, 강원특별자치도, 24462, 대한민국",덕두원리
0.0,,평창2,1.0,2018,4.0,1,1,68,1400573,품종_평창_2017_02,1070419.3062,1953165.5808,1070419.3062,1953165.5808,18평창_02,,,,998.75822889,강원특별자치도,37.57517711789561,128.29748148442394,"진조리, 봉평면, 평창군, 강원특별자치도, 25308, 대한민국",봉평면
0.0,본선,평창1,2.0,2020,4.0,1,1,68,1400573,품종_평창_2020_01,1070205.0323,1952900.7425,1069821.3681,1953848.7501,20평창_01,,,,2108.55125646,강원특별자치도,37.57280658143421,128.29502972228892,"진조리, 봉평면, 평창군, 강원특별자치도, 25308, 대한민국",봉평면
0.0,,평창1,1.0,2017,4.0,1,1,68,1400573,품종_평창_2017_01,1070212.7962,1953332.5433,1070208.9338,1953822.7364,17평창_01,,,,987.996608543,강원특별자치도,37.576697672639376,128.29515901733603,"진조리, 봉평면, 평창군, 강원특별자치도, 25308, 대한민국",봉평면
0.0,산불예방,평창1,1.0,2022,4.5,1,3,68,1400573,품종_평창_2022_01,1070381.7031,1954066.2009,1070646.6354,1953349.9118,22평창_01,,,,1030.49453682,강원특별자치도,37.583296986387836,128.29714221331486,"경강로, 태기리, 봉평면, 평창군, 강원특별자치도, 25261, 대한민국",봉평면
0.0,,평창1,0.83,2018,4.0,1,1,68,1400573,품종_평창_2018_01,1070633.5323,1952913.3283,1070491.8639,1953355.2045,18평창_01,,,,888.139819229,강원특별자치도,37.57288723517024,128.29988300807827,"진조리, 봉평면, 평창군, 강원특별자치도, 25308, 대한민국",봉평면
0.0,,강릉5,1.6,2010,3.0,1,2,68,1400573,품종_강릉_2010_01,1116674.0772,1955118.7697,1116759.048,1955348.7672,10강릉_01,,,,1535.61505819,강원특별자치도,37.58807744878168,128.82151426688705,"송현리, 강릉시, 강원특별자치도, 25643, 대한민국",송현리
0.0,,강릉4,0.92,2009,3.0,1,2,68,1400573,품종_강릉_2009_01,1116759.048,1955348.7672,1117462.5654,1955759.5754,09강릉_01,,,,899.703279345,강원특별자치도,37.59013920626479,128.82251313480373,"왕산면, 강릉시, 강원특별자치도, 25642, 대한민국",왕산면
0.0,,강릉1,2.0,1990,4.0,1,1,68,1400573,품종_강릉_1990_01,1118624.644,1954283.0176,1117388.4117,1955150.465,90강릉_01,,,,1874.65575755,강원특별자치도,37.58029704265561,128.84346655864158,"백두대간 등산로, 왕산면, 강릉시, 강원특별자치도, 25642, 대한민국",왕산면
0.0,,강릉2,2.32,2000,4.0,1,1,68,1400573,품종_강릉_2000_01,1116674.0772,1955118.7697,1116674.0772,1955118.7697,00강릉_01,,,,2437.33748345,강원특별자치도,37.58807744878168,128.82151426688705,"송현리, 강릉시, 강원특별자치도, 25643, 대한민국",송현리
0.0,,강릉7,1.0,2012,3.0,1,2,68,1400573,품종_강릉_2012_02,1117971.4953,1954228.3398,1118051.8877,1954751.5276,12강릉_02,,,,1014.26561706,강원특별자치도,37.579888285181724,128.8360624579783,"송현리, 강릉시, 강원특별자치도, 25643, 대한민국",송현리
0.0,,강릉6,1.0,2012,3.0,1,2,68,1400573,품종_강릉_2012_03,1118051.8877,1954751.5276,1117875.2187,1955053.4933,12강릉_03,,,,893.508841078,강원특별자치도,37.584592464869516,128.83705702533075,"백두대간 등산로, 왕산면, 강릉시, 강원특별자치도, 25642, 대한민국",
0.0,산불예방,강릉12,0.5,2022,5.0,1,3,68,1400573,품종_강릉_2022_01,1118646.0452,1954538.0765,1118387.8634,1954484.8603,22강릉_01,,,,466.004032017,강원특별자치도,37.5825926343684,128.84375018899004,"백두대간 등산로, 왕산면, 강릉시, 강원특별자치도, 25642, 대한민국",왕산면
0.0,본선,강릉13,1.0,2022,3.0,1,2,68,1400573,품종_강릉_2022_02,1118387.8634,1954484.8603,1118102.765,1954596.6012,22강릉_02,,,,810.488937091,강원특별자치도,37.58214634777066,128.84081823071568,"백두대간 등산로, 왕산면, 강릉시, 강원특별자치도, 25642, 대한민국",왕산면
0.0,,강릉8,1.3,2015,4.0,1,1,68,1400573,품종_강릉_2015_01,1117022.5874,1953830.6503,1117837.8923,1954277.1719,15강릉_01,,,,1663.27571171,강원특별자치도,37.57642578900194,128.8252549101096,"송현리, 강릉시, 강원특별자치도, 25643, 대한민국",송현리
0.0,,강릉7,1.1,2012,3.0,1,2,68,1400573,품종_강릉_2012_01,1117022.5874,1953830.6503,1116775.1844,1953889.294,12강릉_01,,,,1006.8618371,강원특별자치도,37.57642578900194,128.8252549101096,"송현리, 강릉시, 강원특별자치도, 25643, 대한민국",송현리
0.0,,강릉9,0.91,2016,3.0,1,2,68,1400573,품종_강릉_2016_01,1116489.3385,1954799.2223,1117205.2888,1954963.1747,16강릉_01,,,,903.241784592,강원특별자치도,37.585221369533436,128.81937149081568,"송현리, 강릉시, 강원특별자치도, 25643, 대한민국",송현리
0.0,,강릉10,1.1,2017,3.0,1,2,68,1400573,품종_강릉_2017_01,1117205.2888,1954963.1747,1117148.5327,1955608.0275,17강릉_01,,,,1106.53776458,강원특별자치도,37.58660785426697,128.82750467760147,"백두대간 등산로, 왕산면, 강릉시, 강원특별자치도, 25642, 대한민국",왕산면
0.0,,강릉3,1.2,2006,3.0,1,2,68,1400573,품종_강릉_2006_01,1117388.4117,1955150.465,1117273.196,1956103.7926,06강릉_01,,,,1451.69975031,강원특별자치도,37.58827220303085,128.82960830007127,"백두대간 등산로, 왕산면, 강릉시, 강원특별자치도, 25642, 대한민국",왕산면
0.0,,23산불청리1,2.2,2023,4.5,1,3,61,1400727,북부_민북_2023_02,1050712.1564,2010719.6511,1051159.4434,2009925.6927,23민북_02,,,,2138.5353261,강원특별자치도,38.095191101305545,128.0783508005982,"청리, 국토정중앙면, 양구군, 강원특별자치도, 24560, 대한민국",국토정중앙면
0.0,,23산불청리2,2.2,2023,4.5,1,3,61,1400727,북부_민북_2023_03,1050723.80059,2011274.66261,1050956.6884,2012207.9049,23민북_03,,,,2189.00176725,강원특별자치도,38.1001923719998,128.07852302462513,"청리, 국토정중앙면, 양구군, 강원특별자치도, 24554, 대한민국",국토정중앙면
0.0,,23간선청리2,1.66,2023,4.0,1,1,61,1400727,북부_민북_2023_09,1052120.5422,2013391.0229,1052004.6331,2014248.6576,23민북_09,,,,1604.47237516,강원특별자치도,38.11918602113058,128.09460717817208,"가오작리, 국토정중앙면, 양구군, 강원특별자치도, 24552, 대한민국",국토정중앙면
0.0,,23작업청리,1.9,2023,3.0,1,2,61,1400727,북부_민북_2023_11,1050017.1176,2009303.4482,1050060.6354,2009717.5015,23민북_11,,,,2054.36914131,강원특별자치도,38.08246657761801,128.07032536536016,"관대두무로, 두무리, 국토정중앙면, 양구군, 강원특별자치도, 24560, 대한민국",국토정중앙면
0.0,,23월학,1.7,2023,4.0,1,1,61,1400440,북부_인제_2023-08,1063416.4328,2018436.0258,1063902.77309,2018786.19223,23인제_08,,,,1733.61703881,강원특별자치도,38.16392855067256,128.22391463936538,"월학리, 북면, 인제군, 강원특별자치도, 24609, 대한민국",북면
0.0,,23하추,1.7,2023,4.0,1,1,61,1400440,북부_인제_2023-10,1068400.5762,2006797.7434,1067916.5566,2005411.954,23인제_10,,,,1700.12290236,강원특별자치도,38.05868114462895,128.27968942008107,"한석산 임도, 인제읍, 인제군, 강원특별자치도, 24641, 대한민국",인제읍
0.0,,23월학2,1.55,2023,4.0,1,1,61,1400440,북부_인제_2023-12,1064088.4203,2018777.3562,1064408.2105,2018815.8647,23인제_12,,,,1553.70028574,강원특별자치도,38.16695705692255,128.23161571627958,"월학리, 북면, 인제군, 강원특별자치도, 24609, 대한민국",북면
0.0,,22추경-청,1.0,2022,4.5,1,3,61,1400727,북부_민북_2022_11,1050956.6884,2012207.9049,1051441.7119,2012679.1133,22민북_11,,,,990.494395378,강원특별자치도,38.10858990096382,128.08124570008755,"청리, 국토정중앙면, 양구군, 강원특별자치도, 24554, 대한민국",국토정중앙면
0.0,,22원Ⅰ.Ⅱ,2.2,2022,4.5,1,3,61,1400727,북부_민북_2022_02,1047542.5758,2003853.3165,1046648.6978,2005026.4596,22민북_02,,,,2261.77009612,강원특별자치도,38.03348131361246,128.0417481092788,"삼팔선로, 도촌리, 국토정중앙면, 양구군, 강원특별자치도, 24559, 대한민국",국토정중앙면
0.0,,23남전,2.2,2023,4.5,1,3,61,1400440,북부_인제_2023-02,1058215.6339,1998183.6495,1058166.5037,1999161.233,23인제_02,,,,2188.16841912,강원특별자치도,37.98176139005791,128.16290063078745,"남전리, 남면, 인제군, 강원특별자치도, 24668, 대한민국",남면
0.0,,22남전,2.2,2022,4.5,1,3,61,1400440,북부_인제_2022-02,1058849.693,1998238.1946,1058215.6339,1998183.6495,22인제_02,,,,2197.68746335,강원특별자치도,37.9822120568757,128.17012467133284,"남전리, 남면, 인제군, 강원특별자치도, 24668, 대한민국",남면
0.0,,22원통,1.7,2022,4.0,1,1,61,1400440,북부_인제_2022-07,1064408.2105,2018815.8647,1065071.8793,2019185.5001,22인제_07,,,,1647.9616888,강원특별자치도,38.1672812932162,128.23526956223117,"북면, 인제군, 강원특별자치도, 대한민국",북면
0.0,,24산불원,2.0,2024,4.5,1,3,61,1400727,북부_민북_2024_01,1046511.4353,2004208.6465,1046883.9164,2003425.002,24민북_01,,,,2082.35557818,강원특별자치도,38.036737263400234,128.03002179958875,"원리, 국토정중앙면, 양구군, 강원특별자치도, 24559, 대한민국",국토정중앙면
0.0,,23산불원리,2.2,2023,4.5,1,3,61,1400727,북부_민북_2023_01,1046511.4353,2004208.6465,1046648.6978,2005026.4596,23민북_01,,,,2270.37118803,강원특별자치도,38.036737263400234,128.03002179958875,"원리, 국토정중앙면, 양구군, 강원특별자치도, 24559, 대한민국",국토정중앙면
0.0,,24산불청3,2.0,2024,4.5,1,3,61,1400727,북부_민북_2024_04,1050070.8832,2010274.9594,1050364.4856,2009757.6057,24민북_04,,,,2014.84963235,강원특별자치도,38.091219168808124,128.07100650527883,"관대두무로, 청리, 국토정중앙면, 양구군, 강원특별자치도, 24554, 대한민국",국토정중앙면
0.0,,24산불청1,2.0,2024,4.5,1,3,61,1400727,북부_민북_2024_02,1050723.80059,2011274.66261,1050376.8387,2010820.9811,24민북_02,,,,2015.18409096,강원특별자치도,38.1001923719998,128.07852302462513,"청리, 국토정중앙면, 양구군, 강원특별자치도, 24554, 대한민국",국토정중앙면
0.0,,24산불청2,0.68,2024,4.5,1,3,61,1400727,북부_민북_2024_03,1050376.8387,2010820.9811,1050712.1564,2010719.6511,24민북_03,,,,672.470134105,강원특별자치도,38.09612307618156,128.07453397070063,"관대두무로, 청리, 국토정중앙면, 양구군, 강원특별자치도, 24554, 대한민국",국토정중앙면
0.0,,24남전,3.0,2024,4.5,1,3,61,1400440,북부_인제_2024-02,1059155.3662,1999970.0528,1058166.5037,1999161.233,24인제_02,,,,3000.9185721,강원특별자치도,37.99780018558973,128.17374790457757,"남전리, 남면, 인제군, 강원특별자치도, 24668, 대한민국",남면
0.0,,24가아,1.8,2024,4.5,1,3,61,1400440,북부_인제_2024-04,1055516.83915,2019617.36848,1055924.4021,2019695.092,24인제_04,,,,1764.08501146,강원특별자치도,38.175096126001606,128.13383642355424,"가아리, 인제읍, 인제군, 강원특별자치도, 24623, 대한민국",인제읍
0.0,,24서흥,1.8,2024,4.5,1,3,61,1400440,북부_인제_2024-05,1058940.18907,2021921.92489,1059145.9779,2021153.6333,24인제_05,,,,1821.57069627,강원특별자치도,38.1956473146877,128.17310952031988,"서흥리, 서화면, 인제군, 강원특별자치도, 24604, 대한민국",서화면
0.0,,24가아,1.88,2024,3.5,1,2,61,1400440,북부_인제_2024-11,1053320.3255,2015665.5791,1053320.3255,2015665.5791,24인제_11,,,,1922.32579008,강원특별자치도,38.13961468942971,128.10846411600235,"가아리, 인제읍, 인제군, 강원특별자치도, 24623, 대한민국",인제읍
0.0,,24월학,2.0,2024,4.0,1,1,61,1400440,북부_인제_2024-09,1063902.77309,2018786.19223,1064104.4086,2019482.5861,24인제_09,,,,2077.4486338,강원특별자치도,38.167049869517854,128.2294973713622,"월학리, 북면, 인제군, 강원특별자치도, 24609, 대한민국",북면
0.0,,24관대,1.34,2024,4.0,1,1,61,1400440,북부_인제_2024-08,1052607.5341,2010682.8141,1053065.9902,2010031.5373,24인제_08,,,,1357.77188325,강원특별자치도,38.094750744392854,128.0999629983433,"남면, 인제군, 강원특별자치도, 대한민국",남면
0.0,((자료부재-임도화)),청리사방댐 진입로,1.18,2008,3.5,1,1,61,1400727,북부_양구_2008_02,1050382.857,2012175.9599,1051348.2791,2012753.9384,08양구_02,,,,1220.37764982,강원특별자치도,38.10833420047183,128.07469824929797,"청리, 국토정중앙면, 양구군, 강원특별자치도, 24554, 대한민국",국토정중앙면
0.0,,16청2,3.34,2016,4.0,1,1,61,1400727,북부-양구-2016-02,1051787.5803,2014123.0602,1052116.7563,2012793.2652,16양구_02,,,,3009.7200724,강원특별자치도,38.125802473354625,128.09086200001965,"가오작리, 국토정중앙면, 양구군, 강원특별자치도, 24552, 대한민국",국토정중앙면
0.0,,15청1,1.5,2015,4.0,1,1,61,1400727,북부_양구_2015_01,1052116.7563,2012793.2652,1051348.2791,2012753.9384,15양구_01,,,,1369.44413392,강원특별자치도,38.11379910709489,128.09452031244342,"청리, 국토정중앙면, 양구군, 강원특별자치도, 24554, 대한민국",국토정중앙면
0.0,((자료부재-임도화)),군전술(청리),2.9,2012,3.5,1,1,61,1400727,북부_양구_2012_07,1051348.2791,2012753.9384,1052209.2842,2014626.5316,12양구_07,,,,2875.95984208,강원특별자치도,38.113488714548964,128.08575152709125,"청리, 국토정중앙면, 양구군, 강원특별자치도, 24554, 대한민국",국토정중앙면
0.0,,22청,1.7,2022,4.0,1,1,61,1400727,북부_민북_2022_07,1052004.6331,2014248.6576,1051200.55903,2013875.45027,22민북_07,,,,1788.25570491,강원특별자치도,38.12692190404761,128.09334746842987,"가오작리, 국토정중앙면, 양구군, 강원특별자치도, 24552, 대한민국",국토정중앙면
0.0,,22가오작,1.7,2022,4.0,1,1,61,1400727,북부_민북_2022_06,1050367.42679,2013977.14903,1050787.2679,2014873.1873,22민북_06,,,,1775.61231512,강원특별자치도,38.12456785810089,128.07464944313705,"가오작리, 국토정중앙면, 양구군, 강원특별자치도, 24552, 대한민국",국토정중앙면
0.0,,23간선청리,1.94,2023,4.0,1,1,61,1400727,북부_민북_2023_07,1051200.55903,2013875.45027,1050675.62553,2013752.65602,23민북_07,,,,2052.20673603,강원특별자치도,38.12360444673701,128.0841470173501,"가오작리, 국토정중앙면, 양구군, 강원특별자치도, 24552, 대한민국",국토정중앙면
0.0,,23간선가오작,1.7,2023,4.0,1,1,61,1400727,북부_민북_2023_06,1050675.62553,2013752.65602,1050367.42679,2013977.14903,23민북_06,,,,1861.1849211,강원특별자치도,38.12252741916118,128.07814960829793,"가오작리, 국토정중앙면, 양구군, 강원특별자치도, 24552, 대한민국",국토정중앙면
0.0,,14가오작,1.98,2014,3.5,1,2,61,1400727,북부_양구_2014_02,1050228.6373,2014201.9422,1049430.1906,2014870.8171,14양구_02,,,,1965.59125039,강원특별자치도,38.12660148602459,128.07308188377965,"가오작리, 국토정중앙면, 양구군, 강원특별자치도, 24552, 대한민국",국토정중앙면
0.0,,15가오작,0.56,2015,3.5,1,2,61,1400727,북부_양구_2015_04,1050449.7024,2014787.8581,1050999.4488,2014946.0707,15양구_04,,,,614.40972105,강원특별자치도,38.13186957333056,128.07564546984707,"광치령로, 가오작리, 국토정중앙면, 양구군, 강원특별자치도, 24552, 대한민국",국토정중앙면
0.0,((자료부재-임도화)),08갯골,13.14,2008,4.5,1,1,61,1400440,북부_인제_2008_06,1057618.2904,2007796.7045,1051680.7309,2016153.461,08인제_06,,,,13893.8438452,강원특별자치도,38.06843495807335,128.15687215045898,"남북리, 인제읍, 인제군, 강원특별자치도, 24624, 대한민국",인제읍
0.0,,20남북,1.0,2020,3.0,1,2,61,1400440,북부_인제_2020-11,1053229.08,2013402.4971,1053570.6472,2013830.9212,20인제_11,,,,991.049046201,강원특별자치도,38.11922474527359,128.10725392643027,"인제읍, 인제군, 강원특별자치도, 대한민국",인제읍
0.0,,17남북,1.6,2017,3.5,1,2,61,1400440,북부_인제_2017_07,1054216.2698,2011914.0548,1054384.0091,2013394.2024,17인제_07,,,,1628.01989212,강원특별자치도,38.105751855337665,128.11840237889282,"인제읍, 인제군, 강원특별자치도, 대한민국",인제읍
0.0,,94가아(Ⅰ),10.82,1994,4.5,1,1,61,1400440,북부_인제_1994_01,1055618.7921,2015970.4805,1051793.2353,2016826.7302,94인제_01,,,,11240.9601733,강원특별자치도,38.14222371306921,128.13471538422033,"광치령로, 가아리, 인제읍, 인제군, 강원특별자치도, 24623, 대한민국",인제읍
0.0,,16가아1,3.3,2016,4.0,1,1,61,1400440,북부_인제_2016_01,1055471.7064,2012866.9767,1055689.5377,2014415.2225,16인제_01,,,,3288.05182219,강원특별자치도,38.114263523761956,128.13279544783362,"가아리, 인제읍, 인제군, 강원특별자치도, 24623, 대한민국",인제읍
0.0,,14가아,3.5,2014,4.5,1,1,61,1400440,북부_인제_2014_02,1055689.5377,2014415.2225,1055240.8321,2015372.3641,14인제_02,,,,3436.51315795,강원특별자치도,38.12820315053858,128.1354011364665,"가아리, 인제읍, 인제군, 강원특별자치도, 24623, 대한민국",인제읍
0.0,,17가아1,1.92,2017,4.0,1,1,61,1400440,북부_인제_2017_01,1056571.7859,2012761.5901,1055694.138,2013147.3848,17인제_01,,,,1924.58138467,강원특별자치도,38.11324550707096,128.14533555896705,"가아리, 인제읍, 인제군, 강원특별자치도, 24623, 대한민국",인제읍
0.0,,15합강,1.5,2015,4.0,1,1,61,1400440,북부_인제_2015_01,1059722.2437,2011198.5786,1058436.6775,2011619.325,15인제_01,,,,1464.71371781,강원특별자치도,38.098956609561554,128.18114092593606,"이평로, 인제읍, 인제군, 강원특별자치도, 24626, 대한민국",인제읍
0.0,,16합강,1.7,2016,4.0,1,1,61,1400440,북부_인제_2016_03,1058436.6775,2011619.325,1057951.0833,2012122.5896,16인제_03,,,,1699.94566598,강원특별자치도,38.102832505529236,128.16651422478157,"상동리, 인제읍, 인제군, 강원특별자치도, 24625, 대한민국",인제읍
0.0,,16가아2,1.06,2016,4.0,1,1,61,1400440,북부_인제_2016_02,1057951.0833,2012122.5896,1057324.6196,2012555.5842,16인제_02,,,,1095.7188679,강원특별자치도,38.1073992802558,128.1610168653989,"상동리, 인제읍, 인제군, 강원특별자치도, 24631, 대한민국",인제읍
0.0,,17가아2,1.42,2017,4.0,1,1,61,1400440,북부_인제_2017_02,1057324.6196,2012555.5842,1056571.7859,2012761.5901,17인제_02,,,,1425.03549243,강원특별자치도,38.11134147145928,128.15390634943736,"인제읍, 인제군, 강원특별자치도, 대한민국",인제읍
0.0,,17남북,1.94,2017,4.0,1,1,61,1400440,북부_인제_2017_03,1055296.4536,2011858.9535,1055471.7064,2012866.9767,17인제_03,,,,2100.01164541,강원특별자치도,38.10518978346047,128.13071823531794,"인제읍, 인제군, 강원특별자치도, 대한민국",인제읍
0.0,,20상동,3.1,2020,4.0,1,1,61,1400440,북부_인제_2020-07,1056484.8597,2010625.1911,1058224.3274,2009897.0886,20인제_07,,,,3153.0777995,강원특별자치도,38.093997359025735,128.14417493881226,"남북리, 인제읍, 인제군, 강원특별자치도, 24624, 대한민국",인제읍
0.0,,16남북,3.15,2016,4.0,1,1,61,1400440,북부_인제_2016_04,1054504.6512,2011517.2163,1055725.2351,2011805.295,16인제_04,,,,3212.82648557,강원특별자치도,38.102158106702134,128.12166123476788,"인제읍, 인제군, 강원특별자치도, 대한민국",인제읍
0.0,,19남북,2.5,2019,4.0,1,1,61,1400440,북부_인제_2019-01,1055725.2351,2011805.295,1056484.8597,2010625.1911,19인제_01,,,,2636.43272438,강원특별자치도,38.10467984978321,128.13560450423182,"남북리, 인제읍, 인제군, 강원특별자치도, 24624, 대한민국",인제읍
0.0,,92왜골,7.96,1992,4.5,1,1,61,1400440,북부_인제_1992_02,1066851.7917,1993975.1966,1064997.9123,1995458.2005,92인제_02,,,,9251.37982792,강원특별자치도,37.94323883486936,128.26084152664154,"하남리, 상남면, 인제군, 강원특별자치도, 24665, 대한민국",상남면
0.0,,68왜골,4.0,1968,4.5,1,1,61,1400440,북부_인제_1968_01,1069521.3124,1991949.95,1066851.7917,1993975.1966,68인제_01,,,,3908.25559849,강원특별자치도,37.92478665731063,128.29102515696033,"내린천로, 상남면, 인제군, 강원특별자치도, 24665, 대한민국",상남면
0.0,,97하남,10.11,1997,4.5,1,1,61,1400440,북부_인제_1997_03,1065816.2955,1991159.6074,1065024.8668,1993357.6019,97인제_03,,,,10012.779555,강원특별자치도,37.91793969615642,128.24880003238695,"하남리, 상남면, 인제군, 강원특별자치도, 24665, 대한민국",상남면
0.0,,77다리골,2.2,1977,4.5,1,1,61,1400440,북부_인제_1977_02,1068936.838,1990206.9214,1066581.4312,1990753.7295,77인제_02,,,,2931.55973556,강원특별자치도,37.909122679427426,128.28420867919223,"내린천로, 하남리, 상남면, 인제군, 강원특별자치도, 24665, 대한민국",상남면
0.0,,10정자,3.34,2010,3.5,1,2,61,1400440,북부_인제_2010_02,1060149.3543,1996637.6033,1058911.693,1995248.6909,10인제_02,,,,3293.36599384,강원특별자치도,37.967701816208326,128.18478898798827,"정자리, 남면, 인제군, 강원특별자치도, 24646, 대한민국",남면
0.0,,21정자,2.5,2021,4.5,1,3,61,1400440,북부_인제_2021-02,1058463.7483,1997261.6993,1057585.7124,1997098.5951,21인제_02,,,,2594.19547245,강원특별자치도,37.97343651954573,128.16565067972854,"소치리, 남면, 인제군, 강원특별자치도, 24646, 대한민국",남면
0.0,,20정자,3.2,2020,4.0,1,3,61,1400440,북부_인제_2020-04,1060149.3543,1996637.6033,1058463.7483,1997261.6993,20인제_04,,,,3269.87595836,강원특별자치도,37.967701816208326,128.18478898798827,"정자리, 남면, 인제군, 강원특별자치도, 24646, 대한민국",남면
0.0,,91오동곡,13.1,1991,4.5,1,1,61,1400440,북부_인제_1991_02,1064202.3725,1996420.8247,1069014.079,1996005.003,91인제_02,,,,13243.0792099,강원특별자치도,37.96547051825063,128.2309091151766,"기린면, 인제군, 강원특별자치도, 대한민국",기린면
0.0,,92안삽재,7.5,1992,4.5,1,1,61,1400440,북부_인제_1992_01,1066106.8961,1997789.8101,1064202.3725,1996420.8247,92인제_01,,,,7881.70973161,강원특별자치도,37.97767133530027,128.25271535598736,"원대리, 인제읍, 인제군, 강원특별자치도, 24639, 대한민국",인제읍
0.0,,89동아실,9.01,1989,4.5,1,1,61,1400440,북부_인제_1989_01,1061251.0568,1998080.4683,1058576.8331,2000888.1988,89인제_01,,,,8658.85761938,강원특별자치도,37.980631627198285,128.19745384876543,"인제 원대리 자작나무숲길, 인제읍, 인제군, 강원특별자치도, 24639, 대한민국",인제읍
0.0,,90동아실,1.48,1990,4.5,1,1,61,1400440,북부_인제_1990_03,1058576.8331,2000888.1988,1058199.6416,2001796.2571,90인제_03,,,,1397.47947562,강원특별자치도,38.00611234061512,128.16723411264417,"원남로, 남전리, 남면, 인제군, 강원특별자치도, 24668, 대한민국",남면
0.0,,11서리,1.74,2011,3.5,1,2,61,1400440,북부_인제_2011_03,1066920.737,1997364.3687,1067110.684,1997555.5767,11인제_03,,,,1797.74405416,강원특별자치도,37.97377753742149,128.2619416335591,"서리, 기린면, 인제군, 강원특별자치도, 24663, 대한민국",기린면
0.0,원대테마임도,90회동,8.81,1990,4.5,1,1,61,1400440,북부_인제_1990_01,1061255.6857,1998117.6153,1066084.1721,1998867.6203,90인제_01,4,2003,휴양형_03_원대,9738.04838532,강원특별자치도,37.98096609308893,128.19750972239538,"인제 원대리 자작나무숲길, 인제읍, 인제군, 강원특별자치도, 24639, 대한민국",인제읍
0.0,,10원대,4.5,2010,3.5,1,2,61,1400440,북부_인제_2010_01,1061661.276,1996914.3962,1063477.7894,1997797.3583,10인제_01,,,,5177.65940773,강원특별자치도,37.970094893895705,128.20202450898248,"인제읍, 인제군, 강원특별자치도, 대한민국",인제읍
0.0,,22원대,2.9,2022,3.5,1,2,61,1400440,북부_인제_2022-12,1061661.2765,1996914.3965,1062962.1089,1997269.0955,22인제_12,,,,2891.36856453,강원특별자치도,37.97009489656542,128.20202451470038,"인제읍, 인제군, 강원특별자치도, 대한민국",인제읍
0.0,,17남전,1.3,2017,3.5,1,2,61,1400440,북부_인제_2017_06,1058899.5267,1997394.466,1059799.815,1998184.6524,17인제_06,,,,1299.93461457,강원특별자치도,37.974604875375064,128.17062289639603,"정자리, 남면, 인제군, 강원특별자치도, 24646, 대한민국",남면
0.0,원대테마임도,91원대,9.14,1991,4.5,1,1,61,1400440,북부_인제_1991_01,1061255.6857,1998117.6153,1060973.0743,2001245.2485,91인제_01,4,2003,휴양형_03_원대,9952.90191733,강원특별자치도,37.98096609308893,128.19750972239538,"인제 원대리 자작나무숲길, 인제읍, 인제군, 강원특별자치도, 24639, 대한민국",인제읍
0.0,,18멍골,3.0,2018,4.0,1,1,61,1400440,북부_인제_2018-02,1064037.3154,1999214.7104,1063508.4514,2000535.0087,18인제_02,,,,3541.16405512,강원특별자치도,37.990661240288304,128.22927929236855,"원대리, 인제읍, 인제군, 강원특별자치도, 24639, 대한민국",인제읍
0.0,,18절골,2.56,2018,4.0,1,1,61,1400440,북부_인제_2018-01,1063214.3626,2000058.5103,1061927.6474,2000951.4248,18인제_01,,,,2456.30232257,강원특별자치도,37.99832346642658,128.21998223723767,"자작나무숲길, 원대리, 인제읍, 인제군, 강원특별자치도, 24639, 대한민국",인제읍
0.0,,17원대,1.42,2017,4.0,1,1,61,1400440,북부_인제_2017_04,1061380.8793,2000897.1196,1061380.8793,2000897.1196,17인제_04,,,,1347.87585381,강원특별자치도,38.00600718437074,128.19917292726248,"인제 원대리 자작나무숲길, 인제읍, 인제군, 강원특별자치도, 24639, 대한민국",인제읍
0.0,,18원대,1.5,2018,3.5,1,2,61,1400440,북부_인제_2018-05,1062495.518,1999433.0515,1062495.518,1999433.0515,18인제_05,,,,1432.18136137,강원특별자치도,37.99273653588809,128.21174104159127,"원대리, 인제읍, 인제군, 강원특별자치도, 24639, 대한민국",인제읍
0.0,,21남전,2.92,2021,4.5,1,3,61,1400440,북부_인제_2021-01,1058803.7284,1997233.6503,1059188.6403,1997280.4056,21인제_01,,,,2920.79567566,강원특별자치도,37.97316176545042,128.16951905228623,"소치리, 남면, 인제군, 강원특별자치도, 24646, 대한민국",남면
0.0,,22남전,0.4,2022,4.0,1,1,61,1400440,북부_인제_2022-09,1059702.9076,1998611.6435,1059809.9118,1998336.4262,22인제_09,,,,378.055125053,강원특별자치도,37.98552193519578,128.17987070172617,"남전리, 남면, 인제군, 강원특별자치도, 24668, 대한민국",남면
0.0,((자료부재-임도화)),08박달고지,3.2,2008,4.5,1,1,61,1400440,북부_인제_2008_05,1060843.7435,2001383.8759,1060626.5472,2003401.002,08인제_05,,,,3051.87357467,강원특별자치도,38.01043015794293,128.19309627319362,"원남로, 남전리, 남면, 인제군, 강원특별자치도, 24668, 대한민국",남면
0.0,,19남전,2.0,2019,4.0,1,1,61,1400440,북부_인제_2019-06,1056820.7553,2003301.6091,1057841.8887,2003279.9654,19인제_06,,,,2265.62484162,강원특별자치도,38.027974499882454,128.14742357764152,"남전리, 남면, 인제군, 강원특별자치도, 24668, 대한민국",남면
0.0,,20남전1,3.17,2020,4.0,1,3,61,1400440,북부_인제_2020-01,1056297.73,2002956.2121,1057043.8793,2003051.6088,20인제_01,,,,3516.72157558,강원특별자치도,38.02489434354476,128.14143735960087,"관대리, 남면, 인제군, 강원특별자치도, 24668, 대한민국",남면
0.0,,93관대,12.6,1993,4.5,1,1,61,1400440,북부_인제_1993_02,1055753.0731,2005655.3519,1052200.0118,2009614.5039,93인제_02,,,,12768.5969498,강원특별자치도,38.04925345654687,128.13544222943773,"관대두무로, 남면, 인제군, 강원특별자치도, 24624, 대한민국",남면
0.0,,93관대,4.0,1993,4.0,1,1,61,1400727,북부_양구_1993_01,1050344.8057,2008732.6256,1052200.0118,2009614.5039,93양구_01,,,,4294.5405769,강원특별자치도,38.07730394779404,128.07402147247146,"관대두무로, 두무리, 국토정중앙면, 양구군, 강원특별자치도, 24560, 대한민국",국토정중앙면
0.0,((자료부재-임도화)),송전탑진입로,2.28,2008,4.0,1,1,61,1400727,북부_양구_2008_01,1051473.4607,2008123.4813,1052144.198,2009672.8939,08양구_01,,,,2722.15457931,강원특별자치도,38.071750594550394,128.08684568847875,"두무리, 국토정중앙면, 양구군, 강원특별자치도, 24560, 대한민국",국토정중앙면
0.0,,18두무,1.9,2018,4.0,1,1,61,1400727,북부_민북_2018_03,1050897.6525,2007750.4151,1051768.8266,2007788.8652,18민북_03,,,,1805.31226713,강원특별자치도,38.0684209928305,128.08025468691153,"두무리, 국토정중앙면, 양구군, 강원특별자치도, 24560, 대한민국",국토정중앙면
0.0,,19두무,1.2,2019,4.0,1,1,61,1400727,북부_민북_2019_02,1051768.8266,2007788.8652,1051805.8142,2008239.0507,19민북_02,,,,1136.65825098,강원특별자치도,38.06871806815198,128.09018874123888,"두무리, 국토정중앙면, 양구군, 강원특별자치도, 24560, 대한민국",국토정중앙면
0.0,, 17두무,1.1,2017,3.5,1,2,61,1400727,북부_양구_2017_04,1050058.7613,2007075.0188,1050897.6525,2007750.4151,17양구_04,,,,1188.15188177,강원특별자치도,38.06238090771855,128.0706441330082,"관대두무로, 두무리, 국토정중앙면, 양구군, 강원특별자치도, 24560, 대한민국",국토정중앙면
0.0,,24작업두무,1.0,2024,3.5,1,2,61,1400727,북부_민북_2024_07,1050992.853,2007871.4191,1051449.8549,2008742.1214,24민북_07,,,,1029.48727008,강원특별자치도,38.06950615780931,128.0813485918414,"두무리, 국토정중앙면, 양구군, 강원특별자치도, 24560, 대한민국",국토정중앙면
0.0,,10두무,6.5,2010,4.0,1,1,61,1400727,북부_양구_2010_01,1050318.288,2006366.8852,1049142.9111,2007540.7871,10양구_01,,,,6265.12547282,강원특별자치도,38.05598455580116,128.07355265249606,"관대두무로, 두무리, 국토정중앙면, 양구군, 강원특별자치도, 24560, 대한민국",국토정중앙면
0.0,,98두무,2.16,1998,4.0,1,1,61,1400727,북부_양구_1998_01,1048972.8947,2007942.5522,1049364.79434,2008220.22242,98양구_01,,,,1990.39968571,강원특별자치도,38.07025887959202,128.05832577769343,"헬기장, 양구터널, 도촌리, 국토정중앙면, 양구군, 강원특별자치도, 24559, 대한민국",국토정중앙면
0.0,,99두무(Ⅱ),1.36,1999,4.0,1,1,61,1400727,북부_양구_1999_03,1049142.9111,2007540.7871,1048972.8947,2007942.5522,99양구_03,,,,1150.26012602,강원특별자치도,38.06662880342792,128.06023638462392,"헬기장, 양구터널, 도촌리, 국토정중앙면, 양구군, 강원특별자치도, 24559, 대한민국",국토정중앙면
0.0,,99두무(Ⅰ),1.48,1999,4.0,1,1,61,1400727,북부_양구_1999_02,1049364.79434,2008220.22242,1050099.5698,2008704.4223,99양구_02,,,,1397.54115396,강원특별자치도,38.072740033682706,128.0628126888222,"관대두무로, 두무리, 국토정중앙면, 양구군, 강원특별자치도, 24560, 대한민국",국토정중앙면
0.0,,16청1,3.32,2016,4.0,1,1,61,1400727,북부-양구-2016-01,1048072.4526,2007556.0139,1049197.1635,2009007.4497,16양구_01,,,,3247.12910056,강원특별자치도,38.06682356441574,128.04803454500276,"양구터널, 도촌리, 국토정중앙면, 양구군, 강원특별자치도, 24559, 대한민국",국토정중앙면
0.0,,15청2,2.12,2015,3.5,1,2,61,1400727,북부_양구_2015_03,1049197.1635,2009007.4497,1050081.4518,2008777.8301,15양구_03,,,,1990.53295033,강원특별자치도,38.079843937336776,128.06095578952804,"관대두무로, 두무리, 국토정중앙면, 양구군, 강원특별자치도, 24560, 대한민국",국토정중앙면
0.0,,22두무,1.15,2022,3.0,1,2,61,1400727,북부_민북_2022_09,1051389.8789,2009524.5121,1051361.9392,2009973.9105,22민북_09,,,,1132.11398447,강원특별자치도,38.08438186901297,128.0859935750095,"두무리, 국토정중앙면, 양구군, 강원특별자치도, 24560, 대한민국",국토정중앙면
0.0,,98고사,1.8,1998,4.5,1,1,61,1400440,북부_인제_1998_03,1063345.2628,2003408.6488,1065286.2365,2004625.3721,98인제_03,,,,2961.22558229,강원특별자치도,38.028506323916986,128.22176903193213,"내린천로, 원대리, 인제읍, 인제군, 강원특별자치도, 24640, 대한민국",인제읍
0.0,,97덕적,5.92,1997,4.5,1,1,61,1400440,북부_인제_1997_01,1070147.8407,2008048.3396,1066850.961,2005300.4463,97인제_01,,,,5661.31795478,강원특별자치도,38.069817628712244,128.29972717262336,"한석산로, 가리산리, 인제읍, 인제군, 강원특별자치도, 24643, 대한민국",인제읍
0.0,((자료부재-임도화)),11한석산,2.04,2011,4.5,1,1,61,1400440,북부_인제_2011_04,1066347.5413,2005978.521,1067764.9931,2006312.0017,11인제_04,,,,2151.01632361,강원특별자치도,38.051451182179015,128.25621307413203,"한석산 임도, 덕적리, 인제읍, 인제군, 강원특별자치도, 24641, 대한민국",인제읍
0.0,,10덕적2,0.4,2010,3.5,1,2,61,1400440,북부_인제_2010_04,1067550.2945,2006588.8345,1067701.0536,2006311.7715,10인제_04,,,,382.713186025,강원특별자치도,38.056862345579475,128.26997825226593,"한석산 임도, 덕적리, 인제읍, 인제군, 강원특별자치도, 24641, 대한민국",인제읍
0.0,,10덕적3,4.65,2020,4.5,1,2,61,1400440,북부_인제_2010_05,1068531.3266,2007259.4309,1066372.6195,2008337.4747,20인제_05,,,,4569.11265239,강원특별자치도,38.06283196211392,128.28122393638154,"한석산 임도, 덕적리, 인제읍, 인제군, 강원특별자치도, 24641, 대한민국",인제읍
0.0,,21덕적Ⅱ,1.7,2021,4.5,1,3,61,1400440,북부_인제_2021-06,1064379.6484,2007099.8058,1065539.371,2007153.4578,21인제_06,,,,1742.71121158,강원특별자치도,38.06169842417081,128.23388614038709,"고사리, 인제읍, 인제군, 강원특별자치도, 24640, 대한민국",인제읍
0.0,,18덕적,1.7,2018,3.5,1,2,61,1400440,북부_인제_2018-07,1067081.1537,2007727.2849,1066190.3018,2007422.222,18인제_07,,,,1776.40116817,강원특별자치도,38.06715696576041,128.26473792788278,"한석산로, 덕적리, 인제읍, 인제군, 강원특별자치도, 24641, 대한민국",인제읍
0.0,,20덕적,2.5,2020,4.0,1,3,61,1400440,북부_인제_2020-02,1065286.737,2008275.0171,1063959.3393,2007816.4806,20인제_02,,,,2448.26907745,강원특별자치도,38.07222445764226,128.24433286765742,"한석산로, 덕적리, 인제읍, 인제군, 강원특별자치도, 24641, 대한민국",인제읍
0.0,,19덕적,2.0,2019,3.0,1,2,61,1400440,북부_인제_2019-04,1066190.3018,2007422.222,1065286.737,2008275.0171,19인제_04,,,,2097.61411848,강원특별자치도,38.064473370270974,128.25455462550374,"엑스게임리조트, 한석산로, 덕적리, 인제읍, 인제군, 강원특별자치도, 24641, 대한민국",인제읍
0.0,,21덕적,2.0,2021,4.5,1,3,61,1400440,북부_인제_2021-03,1063959.3393,2007816.4806,1062985.3851,2008320.6506,21인제_03,,,,1986.69663646,강원특별자치도,38.06818696224613,128.22915934964558,"고사리, 인제읍, 인제군, 강원특별자치도, 24640, 대한민국",인제읍
0.0,,22고사1,1.5,2022,4.5,1,3,61,1400440,북부_인제_2022-01,1062985.3851,2008320.6506,1063206.99461,2007470.10667,22인제_01,,,,1444.72446019,강원특별자치도,38.0727989386859,128.21810115308747,"고사리, 인제읍, 인제군, 강원특별자치도, 24640, 대한민국",인제읍
0.0,,21덕적Ⅰ,1.5,2021,4.5,1,3,61,1400440,북부_인제_2021-05,1065539.371,2007153.4578,1066551.746,2007294.3905,21인제_05,,,,1520.04685628,강원특별자치도,38.062098657821984,128.24711011385233,"엑스게임리조트, 한석산로, 덕적리, 인제읍, 인제군, 강원특별자치도, 24641, 대한민국",인제읍
0.0,,21고사,2.0,2021,4.5,1,3,61,1400440,북부_인제_2021-04,1064292.9241,2005889.9409,1065404.9092,2005669.79,21인제_04,,,,2074.09259531,강원특별자치도,38.05080119947156,128.23278888380503,"고사리, 인제읍, 인제군, 강원특별자치도, 24640, 대한민국",인제읍
0.0,,20고사,2.5,2020,4.0,1,3,61,1400440,북부_인제_2020-03,1066850.961,2005300.4463,1065404.9092,2005669.79,20인제_03,,,,2345.39887801,강원특별자치도,38.04530330505624,128.26188712486461,"한석산 임도, 덕적리, 인제읍, 인제군, 강원특별자치도, 24641, 대한민국",인제읍
0.0,,23고사,3.08,2023,4.5,1,3,61,1400440,북부_인제_2023-01,1063206.99461,2007470.10667,1064922.2714,2006810.3776,23인제_01,,,,3210.64038651,강원특별자치도,38.065118305566706,128.22055236136833,"고사리, 인제읍, 인제군, 강원특별자치도, 24640, 대한민국",인제읍
0.0,,22고사2,2.0,2022,4.5,1,3,61,1400440,북부_인제_2022-03,1064292.9241,2005889.9409,1064922.2714,2006810.3776,22인제_03,,,,2189.53267442,강원특별자치도,38.05080119947156,128.23278888380503,"고사리, 인제읍, 인제군, 강원특별자치도, 24640, 대한민국",인제읍
0.0,,23고사,2.2,2023,4.0,1,1,61,1400440,북부_인제_2023-09,1066335.6639,2005206.2064,1066291.95497,2004275.81986,23인제_09,,,,2196.83838277,강원특별자치도,38.044491923061116,128.25600612564344,"노루목산장, 한석산 임도, 덕적리, 인제읍, 인제군, 강원특별자치도, 24641, 대한민국",인제읍
0.0,,08신풍,2.2,2008,4.5,1,1,61,1400440,북부_인제_2008_07,1054880.1362,1995624.4905,1052766.402,1996273.6366,08인제_07,,,,2613.33266024,강원특별자치도,37.95890511982521,128.12472601817154,"소치리, 남면, 인제군, 강원특별자치도, 24646, 대한민국",남면
0.0,,13신풍,3.0,2013,4.5,1,1,61,1400440,북부_인제_2013_02,1052318.55615,1995025.33036,1053322.2698,1993990.0678,13인제_02,,,,3046.36398965,강원특별자치도,37.953656426383596,128.09552424927014,"신풍리, 남면, 인제군, 강원특별자치도, 24651, 대한민국",남면
0.0,,12신풍,3.0,2012,4.5,1,1,61,1400440,북부_인제_2012_01,1053650.7314,1996060.6343,1052318.55615,1995025.33036,12인제_01,,,,2941.16496069,강원특별자치도,37.96290932322486,128.11076442864717,"신풍리, 남면, 인제군, 강원특별자치도, 24651, 대한민국",남면
0.0,,14신풍,1.675,2014,4.5,1,1,61,1400440,북부_인제_2014_01,1053322.2698,1993990.0678,1053806.0323,1992894.0224,14인제_01,,,,1615.15189057,강원특별자치도,37.9442677692098,128.10687183898602,"신풍리, 남면, 인제군, 강원특별자치도, 24651, 대한민국",남면
0.0,,12어론,2.92,2012,3.5,1,2,61,1400440,북부_인제_2012_02,1052005.8984,1993148.3423,1053426.075,1992907.1455,12인제_02,,,,2865.41586736,강원특별자치도,37.936758027209095,128.09182984708778,"김부대왕로, 갑둔리, 남면, 인제군, 강원특별자치도, 24652, 대한민국",남면
0.0,,90갑둔,5.36,1990,4.5,1,1,61,1400440,북부_인제_1990_02,1053438.9242,1992886.3268,1054880.1362,1995624.4905,90인제_02,,,,5588.71687605,강원특별자치도,37.9343134656402,128.1081174659958,"김부대왕로, 갑둔리, 남면, 인제군, 강원특별자치도, 24652, 대한민국",남면
0.0,, 17상리,2.8,2017,3.5,1,2,61,1400727,북부_양구_2017_03,1041350.5615,2012059.4573,1041423.6201,2011744.8705,17양구_03,,,,2999.96551598,강원특별자치도,38.10774297859383,127.97166708090798,"박수근로421번길, 정림리, 양구읍, 양구군, 강원특별자치도, 24519, 대한민국",양구읍
0.0,,97월명(Ⅰ),9.22,1997,4.0,1,1,61,1400727,북부_양구_1997_01,1038621.1205,2013179.6289,1037771.8047,2010034.2755,97양구_01,,,,9936.33209801,강원특별자치도,38.117959330562314,127.94059510950723,"파로호로, 월명리, 양구읍, 양구군, 강원특별자치도, 24516, 대한민국",양구읍
0.0,월명테마임도,96월명,9.22,1996,4.0,1,1,61,1400727,북부_양구_1996_01,1037771.8047,2010034.2755,1034516.5142,2010262.9515,96양구_01,5,2012,레포츠_12_월명,6637.25436146,강원특별자치도,38.08964781515357,127.93073978812234,"파로호로2번길, 월명리, 양구읍, 양구군, 강원특별자치도, 24516, 대한민국",양구읍
0.0,,21월명,2.2,2021,3.0,1,2,61,1400727,북부_민북_2021_07,1035510.4025,2010637.1523,1035412.9257,2009882.6012,21민북_07,,,,2371.5600665,강원특별자치도,38.095172954792346,127.90498194084192,"월명리, 양구읍, 양구군, 강원특별자치도, 24516, 대한민국",양구읍
0.0,,10월명(당골),2.64,2010,3.0,1,2,61,1400727,북부_양구_2010_03,1036756.1022,2011753.1026,1035037.6206,2012628.3227,10양구_03,,,,2766.50230227,강원특별자치도,38.105180642693874,127.91924576496278,"간척월명로1970번길, 월명리, 양구읍, 양구군, 강원특별자치도, 24516, 대한민국",양구읍
0.0,,18월명(Ⅰ),3.64,2018,3.5,1,2,61,1400727,북부_민북_2018_04,1035955.7596,2010472.2361,1036372.6726,2012081.2593,18민북_04,,,,3717.01698082,강원특별자치도,38.09366902981999,127.91005263676298,"월명리, 양구읍, 양구군, 강원특별자치도, 24516, 대한민국",양구읍
0.0,,10월명(청량골),1.76,2010,3.0,1,2,61,1400727,북부_양구_2010_02,1039469.8851,2009792.0574,1038707.2856,2010864.7159,10양구_02,,,,1643.56190214,강원특별자치도,38.08739225626171,127.95009032880496,"파로호로2번길, 월명리, 양구읍, 양구군, 강원특별자치도, 24516, 대한민국",양구읍
0.0,,99월명,1.24,1999,4.0,1,1,61,1400727,북부_양구_1999_01,1039860.0356,2009268.8407,1039555.1384,2009741.1682,99양구_01,,,,1391.66476433,강원특별자치도,38.082659650038806,127.95451004271857,"헬기장, 파로호로2번길, 월명리, 양구읍, 양구군, 강원특별자치도, 24516, 대한민국",양구읍
0.0,,19웅진,2.3,2019,4.0,1,1,61,1400727,북부_민북_2019_04,1039306.4648,2008516.3841,1038161.31374,2008551.06879,19민북_04,,,,2351.35015676,강원특별자치도,38.075902375353294,127.94815665727002,"웅진리, 양구읍, 양구군, 강원특별자치도, 24517, 대한민국",양구읍
0.0,,18월명(Ⅱ),1.5,2018,3.5,1,2,61,1400727,북부_민북_2018_05,1039860.0356,2009268.8407,1039306.4648,2008516.3841,18민북_05,,,,1571.96885766,강원특별자치도,38.082659650038806,127.95451004271857,"헬기장, 파로호로2번길, 월명리, 양구읍, 양구군, 강원특별자치도, 24516, 대한민국",양구읍
0.0,,20웅진,1.7,2020,4.0,1,1,61,1400727,북부_민북_2020_05,1038161.31374,2008551.06879,1037356.1614,2008055.8761,20민북_05,,,,1767.83619643,강원특별자치도,38.076264032134574,127.93510230528405,"연각암, 소양웅진길, 웅진리, 양구읍, 양구군, 강원특별자치도, 24517, 대한민국",양구읍
0.0,월명테마임도,95웅진,9.14,1995,4.0,1,1,61,1400727,북부_양구_1995_01,1037541.434,2007709.6603,1037859.4106,2008867.1811,95양구_01,5,2012,레포츠_12_월명,9013.42003898,강원특별자치도,38.06870675931393,127.92799064046389,"소양웅진길, 웅진리, 양구읍, 양구군, 강원특별자치도, 24517, 대한민국",양구읍
0.0,월명테마임도,97월명(Ⅱ),3.06,1997,4.0,1,1,61,1400727,북부_양구_1997_02,1037859.4106,2008867.1811,1037256.7766,2009874.2786,97양구_02,5,2012,레포츠_12_월명,3053.17256427,강원특별자치도,38.07912569460404,127.93167694592047,"월명리, 양구읍, 양구군, 강원특별자치도, 24516, 대한민국",양구읍
0.0,,14상무룡,2.26,2014,3.5,1,2,61,1400727,북부_양구_2014_01,1036948.6518,2018794.7939,1036360.4945,2017539.5475,14양구_01,,,,2320.8751868,강원특별자치도,38.168635641599764,127.921807110782,"상무룡로, 금악리, 양구읍, 양구군, 강원특별자치도, 24504, 대한민국",양구읍
0.0,,20군량,2.5,2020,4.0,1,1,61,1400727,북부_민북_2020_07,1039067.9897,2017487.3665,1038157.1532,2017309.1642,20민북_07,,,,2412.02067179,강원특별자치도,38.156763223253265,127.94592911134322,"성곡로847번길, 군량리, 양구읍, 양구군, 강원특별자치도, 24514, 대한민국",양구읍
0.0,,19상무룡,2.5,2019,4.0,1,1,61,1400727,북부_민북_2019_03,1038157.1532,2017309.1642,1037582.8096,2018219.8517,19민북_03,,,,2456.63897668,강원특별자치도,38.1551962050424,127.93552338702064,"성곡로847번길, 군량리, 양구읍, 양구군, 강원특별자치도, 24514, 대한민국",양구읍
0.0,,13상무룡(Ⅱ),2.083,2013,3.5,1,2,61,1400727,북부_양구_2013_03,1037443.1434,2018337.9072,1037637.1092,2018625.3773,13양구_03,,,,2207.49239621,강원특별자치도,38.16449758813081,127.92742805586114,"상무룡로, 상무룡리, 양구읍, 양구군, 강원특별자치도, 24516, 대한민국",양구읍
0.0,,20상무룡,2.01,2020,4.0,1,1,61,1400727,북부_민북_2020_06,1038154.2907,2018854.5086,1038781.6012,2019139.3881,20민북_06,,,,2062.14209801,강원특별자치도,38.16912357221032,127.93557356829083,"군량리, 양구읍, 양구군, 강원특별자치도, 24514, 대한민국",양구읍
0.0,,17서흥,2.2,2017,3.5,1,2,61,1400440,북부_인제_2017_05,1066936.957,2020778.7081,1066963.7863,2022673.9834,17인제_05,,,,2392.47550668,강원특별자치도,38.18478581933524,128.26431958187152,"말고개터널, 북면, 인제군, 강원특별자치도, 24604, 대한민국",북면
0.0,,20서흥2,1.24,2020,3.0,1,2,61,1400440,북부_인제_2020-10,1067172.3781,2022224.6767,1066973.7437,2021487.1261,20인제_10,,,,1322.6791029,강원특별자치도,38.197799065886926,128.26714419513038,"서화면, 인제군, 강원특별자치도, 대한민국",서화면
0.0,,20서흥1,1.6,2020,3.0,1,2,61,1400440,북부_인제_2020-09,1066973.7437,2021487.1261,1066445.5015,2021703.1756,20인제_09,,,,1636.53939383,강원특별자치도,38.19116721020723,128.2648063502324,"서화면, 인제군, 강원특별자치도, 대한민국",서화면
0.0,,21서흥,1.86,2021,3.0,1,2,61,1400440,북부_인제_2021-08,1066162.579,2021423.3729,1065716.6527,2021750.3501,21인제_08,,,,1900.62289463,강원특별자치도,38.19065264700854,128.25553807131809,"서화면, 인제군, 강원특별자치도, 대한민국",서화면
0.0,,18서흥,1.4,2018,3.5,1,2,61,1400440,북부_인제_2018-08,1066311.6345,2021459.168,1066311.6345,2021459.168,18인제_08,,,,1445.12663392,강원특별자치도,38.19096426129459,128.2572434012062,"서화면, 인제군, 강원특별자치도, 대한민국",서화면
0.0,,21서흥,2.0,2021,3.0,1,2,61,1400440,북부_인제_2021-09,1065103.0629,2021728.8265,1064425.1058,2021819.6319,21인제_09,,,,2147.71159899,강원특별자치도,38.19348257508379,128.24346794788113,"설피로, 서흥리, 서화면, 인제군, 강원특별자치도, 24604, 대한민국",서화면
0.0,,22서흥,1.32,2022,3.5,1,2,61,1400440,북부_인제_2022-11,1065103.0629,2021728.8265,1065716.6527,2021750.3501,22인제_11,,,,1329.35088559,강원특별자치도,38.19348257508379,128.24346794788113,"설피로, 서흥리, 서화면, 인제군, 강원특별자치도, 24604, 대한민국",서화면
0.0,((자료부재-임도화)),원통,3.2,2008,4.5,1,1,61,1400440,북부_인제_2008_01,1065606.8645,2018330.2347,1067476.5325,2019388.2075,08인제_01,,,,3243.35633351,강원특별자치도,38.16281839172897,128.24890728012008,"북면, 인제군, 강원특별자치도, 24608, 대한민국",북면
0.0,,21원통,1.7,2021,4.0,1,1,61,1400440,북부_인제_2021-07,1065071.8793,2019185.5001,1065422.5061,2019780.0247,21인제_07,,,,1549.90737165,강원특별자치도,38.170564726657794,128.24287908005883,"북면, 인제군, 강원특별자치도, 대한민국",북면
0.0,,20원통,2.5,2020,4.0,1,1,61,1400440,북부_인제_2020-08,1065422.5061,2019780.0247,1066494.196,2019067.7286,20인제_08,,,,2569.52037521,강원특별자치도,38.175897114010645,128.24693630664834,"북면, 인제군, 강원특별자치도, 대한민국",북면
0.0,,20후곡,2.0,2020,4.0,1,3,61,1400727,북부_민북_2020_02,1049879.9875,2019314.7419,1050459.0992,2020056.7069,20민북_02,,,,1917.99293651,강원특별자치도,38.17269851927924,128.069462296369,"원당리, 동면, 양구군, 강원특별자치도, 24510, 대한민국",동면
0.0,,21원당,1.66,2021,4.5,1,3,61,1400727,북부_민북_2021_01,1050406.8373,2020315.2884,1051204.4791,2021075.1295,21민북_01,,,,1279.81315505,강원특별자치도,38.18168629566425,128.07554779946022,"숨골로310번길, 원당리, 동면, 양구군, 강원특별자치도, 24511, 대한민국",동면
0.0,,21원당Ⅰ,0.54,2021,4.5,1,3,61,1400727,북부_민북_2021_05,1050459.0992,2020056.7069,1050476.4373,2020262.536,21민북_05,,,,831.071333795,강원특별자치도,38.17935299007717,128.07612614933845,"원당리, 동면, 양구군, 강원특별자치도, 24511, 대한민국",동면
0.0,,22원당,0.1,2022,4.5,1,3,61,1400727,북부_민북_2022_04,1050476.4373,2020262.536,1050406.8373,2020315.2884,22민북_04,,,,126.74561747,강원특별자치도,38.18120698466641,128.07633871341966,"원당리, 동면, 양구군, 강원특별자치도, 24511, 대한민국",동면
0.0,,12후곡,1.56,2012,3.0,1,2,61,1400727,북부_양구_2012_02,1049410.2674,2018584.5495,1049939.8145,2019760.1807,12양구_02,,,,1595.44791943,강원특별자치도,38.16614375955092,128.06404919190473,"후곡리, 동면, 양구군, 강원특별자치도, 24510, 대한민국",동면
0.0,,19서흥(앞골),2.5,2019,4.0,1,1,61,1400440,북부_인제_2019-02,1059565.1302,2022262.9801,1057670.9724,2023311.5487,19인제_02,,,,2581.1385186,강원특별자치도,38.19867975940947,128.18027461491008,"서흥리, 서화면, 인제군, 강원특별자치도, 24604, 대한민국",서화면
0.0,,20서흥,2.06,2020,4.0,1,1,61,1400440,북부_인제_2020-06,1057670.9724,2023311.5487,1057137.772,2024310.1779,20인제_06,,,,2101.0267317,강원특별자치도,38.20825279397785,128.15872852419238,"심적리, 서화면, 인제군, 강원특별자치도, 24600, 대한민국",서화면
0.0,,19적,2.98,2019,3.0,1,2,61,1400727,북부_민북_2019_05,1052784.1966,2019998.6324,1052756.0891,2020925.715,19민북_05,,,,3109.669626,강원특별자치도,38.17869637148281,128.10266774443681,"적리, 국토정중앙면, 양구군, 강원특별자치도, 24551, 대한민국",국토정중앙면
0.0,((자료부재-임도화)),광치,3.03,2008,4.5,1,1,61,1400440,북부_인제_2008_02,1052466.3434,2016431.2041,1051902.0356,2016938.1406,08인제_02,,,,3001.51377308,강원특별자치도,38.146564718513176,128.09877579911924,"광치령로, 가아리, 인제읍, 인제군, 강원특별자치도, 24623, 대한민국",인제읍
0.0,,94가아(Ⅱ),9.81,1994,4.5,1,1,61,1400440,북부_인제_1994_02,1051793.2353,2016826.7302,1054362.3825,2018239.2153,94인제_02,,,,7642.94438275,강원특별자치도,38.15016818324432,128.09112305213424,"광치터널, 인제읍, 인제군, 강원특별자치도, 24623, 대한민국",인제읍
0.0,,95월학(Ⅰ),9.36,1995,4.5,1,1,61,1400440,북부_인제_1995_02,1058642.3133,2016187.2284,1057501.2407,2018536.8736,95인제_02,,,,9071.21893852,강원특별자치도,38.14398555507022,128.1692351953359,"가아리, 인제읍, 인제군, 강원특별자치도, 24623, 대한민국",인제읍
0.0,,95월학(Ⅱ),4.54,1995,4.5,1,1,61,1400440,북부_인제_1995_03,1057501.2407,2018536.8736,1060256.2087,2016427.7625,95인제_03,,,,4812.07911519,강원특별자치도,38.16523418997103,128.15640367307464,"월학펜션, 광치령로, 가아리, 인제읍, 인제군, 강원특별자치도, 24623, 대한민국",인제읍
0.0,,95가아,12.95,1995,4.5,1,1,61,1400440,북부_인제_1995_01,1054362.3825,2018239.2153,1058642.3133,2016187.2284,95인제_01,,,,13085.4391813,강원특별자치도,38.16274645743942,128.12055138802515,"가아리, 인제읍, 인제군, 강원특별자치도, 24623, 대한민국",인제읍
0.0,,91봉남대,12.56,1991,4.5,1,1,61,1400440,북부_인제_1991_04,1059734.5825,1983579.9662,1062744.3772,1987537.6591,91인제_04,,,,10145.770124,강원특별자치도,37.85004850053924,128.17898482404135,"상남면, 인제군, 강원특별자치도, 대한민국",상남면
0.0,,92자포대,8.1,1992,4.5,1,1,61,1400440,북부_인제_1992_04,1059734.5825,1983579.9662,1059684.5378,1985612.7214,92인제_04,,,,9136.88508896,강원특별자치도,37.85004850053924,128.17898482404135,"상남면, 인제군, 강원특별자치도, 대한민국",상남면
0.0,,97상남,4.5,1997,4.5,1,1,61,1400440,북부_인제_1997_02,1062841.7007,1984147.6953,1062877.4624,1982438.6247,97인제_02,,,,4384.76191068,강원특별자치도,37.85495619025514,128.21434939981128,"자포대길, 상남리, 상남면, 인제군, 강원특별자치도, 24664, 대한민국",상남면
0.0,,23상남1,0.58,2023,3.5,1,2,61,1400440,북부_인제_2023-13,1064283.4885,1982300.7369,1063790.5414,1982623.6323,23인제_13,,,,605.777572223,강원특별자치도,37.83821009772173,128.2305733792402,"서울양양고속도로, 상남면, 인제군, 강원특별자치도, 24664, 대한민국",상남면
0.0,,12상남,1.19,2012,3.5,1,2,61,1400440,북부_인제_2012_03,1063837.4867,1981887.4573,1062900.2306,1982540.2249,12인제_03,,,,1235.50277395,강원특별자치도,37.83451677848542,128.22546852314937,"서울양양고속도로, 상남면, 인제군, 강원특별자치도, 24664, 대한민국",상남면
0.0,,00상남,3.9,2000,4.5,1,1,61,1400440,북부_인제_2000_01,1062877.4624,1982438.6247,1061134.34,1982192.4301,00인제_01,,,,3657.07761828,강원특별자치도,37.83955084146869,128.21460722260767,"상남리, 상남면, 인제군, 강원특별자치도, 24664, 대한민국",상남면
0.0,,98상남,1.6,1998,4.5,1,1,61,1400440,북부_인제_1998_02,1060501.5618,1981724.3072,1061134.34,1982192.4301,98인제_02,,,,1721.61281126,강원특별자치도,37.833273799543505,128.18754699434513,"상남면, 인제군, 강원특별자치도, 대한민국",상남면
0.0,,91아홉사리,10.2,1991,4.5,1,1,61,1400440,북부_인제_1991_03,1061660.193,1980093.9812,1059734.5825,1983579.9662,91인제_03,,,,11841.4627912,강원특별자치도,37.818502902005726,128.2005739965267,"아홉사리로, 상남면, 인제군, 강원특별자치도, 25165, 대한민국",상남면
0.0,,13상남,1.72,2013,3.5,1,2,61,1400440,북부_인제_2013_01,1062150.4034,1982138.7623,1063175.769,1981252.645,13인제_01,,,,1737.29357802,강원특별자치도,37.83689819047561,128.20631895036277,"상남면, 인제군, 강원특별자치도, 대한민국",상남면
0.0,,75엄달골,9.473,1975,4.5,1,1,61,1400440,북부_인제_1975_01,1062744.3772,1987537.6591,1066508.2914,1984970.5503,75인제_01,,,,8273.98007896,강원특별자치도,37.88551460248613,128.213537753472,"상남리, 상남면, 인제군, 강원특별자치도, 24664, 대한민국",상남면
0.0,,90엄달골,1.5,1990,4.5,1,1,61,1400440,북부_인제_1990_04,1060775.5595,1985554.3916,1061957.8991,1985886.9306,90인제_04,,,,1630.39901478,강원특별자치도,37.867774113418584,128.1909826130449,"엄달골길, 상남면, 인제군, 강원특별자치도, 24664, 대한민국",상남면
0.0,,23상남2,1.0,2023,3.5,1,2,61,1400440,북부_인제_2023-14,1062348.4349,1980353.9853,1061679.5729,1979959.8217,23인제_14,,,,1162.6145635,강원특별자치도,37.820799419261554,128.20841554908338,"아홉사리로, 상남면, 인제군, 강원특별자치도, 25165, 대한민국",상남면
0.0,,24부평,2.0,2024,4.5,1,3,61,1400440,북부_인제_2024-03,1055908.89089,1998197.06163,1055375.14752,1998885.45064,24인제_03,,,,2070.65279207,강원특별자치도,37.982027361734666,128.1366363478716,"부평리, 남면, 인제군, 강원특별자치도, 24646, 대한민국",남면
0.0,,23부평,2.2,2023,4.5,1,3,61,1400440,북부_인제_2023-03,1057022.55777,1997791.04711,1055908.89089,1998197.06163,23인제_03,,,,2313.86597117,강원특별자치도,37.97829889765315,128.14928472520253,"소치리, 남면, 인제군, 강원특별자치도, 24646, 대한민국",남면
0.0,,22부평,2.3,2022,4.5,1,3,61,1400440,북부_인제_2022-04,1057585.7124,1997098.5951,1057022.55777,1997791.04711,22인제_04,,,,2220.68495579,강원특별자치도,37.97202271144552,128.15564115904857,"소치리, 남면, 인제군, 강원특별자치도, 24646, 대한민국",남면
0.0,,20남전2,1.4,2020,4.0,1,3,61,1400440,북부_인제_2020-05,1058899.5267,1997394.466,1058849.693,1998238.1946,20인제_05,,,,1289.56171753,강원특별자치도,37.974604875375064,128.17062289639603,"정자리, 남면, 인제군, 강원특별자치도, 24646, 대한민국",남면
0.0,((자료부재-임도화)),08원정,7.2,2008,4.5,1,1,61,1400440,북부_인제_2008_03,1061255.6857,1998117.6153,1060992.1094,2001052.9984,08인제_03,,,,4536.7266339,강원특별자치도,37.98096609308893,128.19750972239538,"인제 원대리 자작나무숲길, 인제읍, 인제군, 강원특별자치도, 24639, 대한민국",인제읍
0.0,,22서리,0.5,2022,4.0,1,1,61,1400440,북부_인제_2022-10,1067800.3253,1995971.484,1067957.0034,1995859.7875,22인제_10,,,,513.297250442,강원특별자치도,37.961159386637554,128.27182413154338,"서리, 기린면, 인제군, 강원특별자치도, 24663, 대한민국",기린면
0.0,,16남북,0.96,2016,3.5,1,2,61,1400440,북부_인제_2016_05,1054714.3544,2010504.5788,1053862.0599,2010621.7909,16인제_05,,,,918.895302054,강원특별자치도,38.093019322617984,128.12397529973288,"남북리, 인제읍, 인제군, 강원특별자치도, 24624, 대한민국",인제읍
0.0,,22남북,1.7,2022,4.0,1,1,61,1400440,북부_인제_2022-08,1053772.80734,2009963.57587,1053862.0599,2010621.7909,22인제_08,,,,1680.77712415,강원특별자치도,38.08820019576732,128.1131975148062,"인제읍, 인제군, 강원특별자치도, 대한민국",인제읍
0.0,,23남북,1.5,2023,4.0,1,1,61,1400440,북부_인제_2023-11,1053065.9902,2010031.5373,1053772.80734,2009963.57587,23인제_11,,,,1493.79849981,강원특별자치도,38.088854461776414,128.10514280122842,"남면, 인제군, 강원특별자치도, 대한민국",남면
0.0,,22청Ⅰ.Ⅱ,2.2,2022,4.5,1,3,61,1400727,북부_민북_2022_03,1051291.7464,2009499.3537,1051159.4434,2009925.6927,22민북_03,,,,2161.71547925,강원특별자치도,38.084160708117125,128.08487282757625,"두무리, 국토정중앙면, 양구군, 강원특별자치도, 24560, 대한민국",국토정중앙면
0.0,,23가아,2.0,2023,4.5,1,3,61,1400440,북부_인제_2023-04,1054541.40284,2019727.67809,1055516.83915,2019617.36848,23인제_04,,,,2082.915897,강원특별자치도,38.176149826793036,128.12270892780037,"가아리, 인제읍, 인제군, 강원특별자치도, 24623, 대한민국",인제읍
0.0,,22가아,2.0,2022,4.5,1,3,61,1400440,북부_인제_2022-05,1055346.8126,2018649.1397,1054541.40284,2019727.67809,22인제_05,,,,2059.00076092,강원특별자치도,38.16638082415578,128.13182000403233,"가아리, 인제읍, 인제군, 강원특별자치도, 24623, 대한민국",인제읍
0.0,,22서흥,2.0,2022,4.5,1,3,61,1400440,북부_인제_2022-06,1057797.1255,2023250.2364,1057691.53514,2022456.13956,22인제_06,,,,2055.16752378,강원특별자치도,38.20769215495354,128.16016438921795,"심적리, 서화면, 인제군, 강원특별자치도, 24600, 대한민국",서화면
0.0,,23서흥,2.0,2023,4.5,1,3,61,1400440,북부_인제_2023-05,1057691.53514,2022456.13956,1058940.18907,2021921.92489,23인제_05,,,,2008.40476495,강원특별자치도,38.20054253878031,128.15889389061633,"서화면, 인제군, 강원특별자치도, 대한민국",서화면
0.0,,16간척,3.0,2016,4.0,1,1,61,1400438,북부_춘천_2016_06,1025883.8067,2001577.7526,1026729.8728,2002280.7866,16춘천_06,,,,2657.08248093,강원특별자치도,38.01385041266713,127.79486829741339,"배후령길, 간척리, 간동면, 화천군, 강원특별자치도, 24139, 대한민국",간동면
0.0,,14품걸,1.66,2014,3.0,1,2,61,1400438,북부_춘천_2014_02,1034804.5256,1985851.0541,1034804.0048,1986682.7481,14춘천_02,,,,1673.81087171,강원특별자치도,37.871810525481905,127.89573032058723,"갈골길, 동면, 춘천시, 강원특별자치도, 24211, 대한민국",
0.0,,16간척,1.84,2016,3.0,1,2,61,1400438,북부_춘천_2016_05,1026016.4186,2000904.8563,1026088.2975,2001160.8517,16춘천_05,,,,1878.0133848,강원특별자치도,38.00778196019169,127.79635457701183,"배후령길, 간척리, 간동면, 화천군, 강원특별자치도, 24139, 대한민국",간동면
0.0,,10삽교,0.43,2010,3.0,1,1,61,1400441,북부_홍천_2010_02,1069859.9264,1948879.8967,1069988.4482,1949196.003,10홍천_02,,,,942.772381352,강원특별자치도,37.53659407015459,128.29073892908892,"삽교리, 둔내면, 횡성군, 강원특별자치도, 25261, 대한민국",둔내면
0.0,,17간척(추경),1.0,2017,3.0,1,2,61,1400438,북부_춘천_2017_10,1025566.9071,1999701.8241,1025820.6111,2000526.2108,17춘천_10,,,,957.366347262,강원특별자치도,37.99695208799187,127.79119134555133,"배후령길, 간척리, 간동면, 화천군, 강원특별자치도, 24139, 대한민국",간동면
0.0,,17간척,1.46,2017,4.0,1,1,61,1400438,북부_춘천_2017_04,1025883.8067,2001577.7526,1025623.929,2000727.9734,17춘천_04,,,,1445.5964004,강원특별자치도,38.01385041266713,127.79486829741339,"배후령길, 간척리, 간동면, 화천군, 강원특별자치도, 24139, 대한민국",간동면
0.0,,22방내2,3.2,2022,4.0,1,1,61,1400441,북부_홍천_2022_08,1068657.7073,1975499.69883,1067318.6682,1976120.956,22홍천_08,,,,3103.07195649,강원특별자치도,37.776597841918004,128.27963698962958,"방내로, 방내리, 내면, 홍천군, 강원특별자치도, 25169, 대한민국",내면
0.0,,24품안,1.5,2024,3.0,1,2,61,1400438,북부_춘천_2024_11,1029904.4425,1991187.8745,1030677.0337,1991399.2966,24춘천_11,,,,1631.01915234,강원특별자치도,37.92008483642356,127.84023827718795,"품안리, 춘천시, 강원특별자치도, 24211, 대한민국",품안리
0.0,,24원천,1.6,2024,3.0,1,2,61,1400438,북부_춘천_2024_13,1013059.3266,2010135.057,1014048.9937,2009467.1478,24춘천_13,,,,1778.48192729,강원특별자치도,38.091251175920725,127.64892869847121,"계파로, 논미리, 하남면, 화천군, 강원특별자치도, 24143, 대한민국",하남면
0.0,,24물걸1,1.5,2024,4.0,1,1,61,1400441,북부_홍천_2024_08,1058365.65817,1978512.30624,1058641.0109,1978714.8991,24홍천_08,,,,1547.28261108,강원특별자치도,37.80446459897744,128.16301685978942,"와야리, 내촌면, 홍천군, 강원특별자치도, 25162, 대한민국",내촌면
0.0,,24물걸2,0.8,2024,4.0,1,1,61,1400441,북부_홍천_2024_09,1059716.9198,1979017.22,1059367.5631,1978993.0467,24홍천_09,,,,835.148239401,강원특별자치도,37.80892777939572,128.17840745025276,"내촌면, 홍천군, 강원특별자치도, 대한민국",내촌면
0.0,,24방내1,1.7,2024,4.0,1,1,61,1400441,북부_홍천_2024_10,1065692.6392,1975717.7504,1064993.2925,1975754.0449,24홍천_10,,,,1689.50934608,강원특별자치도,37.77878097787613,128.24598983032163,"방내리, 내면, 홍천군, 강원특별자치도, 25169, 대한민국",내면
0.0,,23방내1,2.0,2023,4.0,1,1,61,1400441,북부_홍천_2023_10,1066388.649,1974404.1089,1067379.5369,1973988.2204,23홍천_10,,,,1992.03471311,강원특별자치도,37.76689152667365,128.25377271813576,"내면, 홍천군, 강원특별자치도, 대한민국",내면
0.0,,24방내2,2.32,2024,4.0,1,1,61,1400441,북부_홍천_2024_11,1067379.5369,1973988.2204,1067543.96138,1974811.07082,24홍천_11,,,,2326.31763611,강원특별자치도,37.7630708546417,128.26498367570863,"내면, 홍천군, 강원특별자치도, 대한민국",내면
0.0,,24춘당,1.2,2024,4.0,1,1,61,1400441,북부_홍천_2024_13,1060771.3445,1958321.1068,1060628.0364,1959010.4729,24홍천_13,,,,1103.16554166,강원특별자치도,37.62233069805761,128.18865662266543,"속실리, 청일면, 횡성군, 강원특별자치도, 25253, 대한민국",청일면
0.0,,24삽교,0.4,2024,3.5,1,2,61,1400441,북부_홍천_2024_14,1070180.2792,1949008.132,1069985.8468,1949151.7208,24홍천_14,,,,430.462674476,강원특별자치도,37.53772548698972,128.29437691922533,"삽교리, 둔내면, 횡성군, 강원특별자치도, 25261, 대한민국",둔내면
0.0,,19월곡,2.0,2019,4.0,1,1,61,1400438,북부_춘천_2019_03,1027775.7538,1990206.1773,1028301.9479,1991077.2729,19춘천_03,,,,1867.14313824,강원특별자치도,37.91130443095969,127.81598158736573,"가락재로, 동면, 춘천시, 강원특별자치도, 24211, 대한민국",
0.0,,20월곡,1.7,2020,4.0,1,1,61,1400438,북부_춘천_2020_03,1028301.9479,1991077.2729,1028474.8661,1991883.1311,20춘천_03,,,,1732.2223893,강원특별자치도,37.919139294869275,127.82200179532587,"월곡리, 춘천시, 강원특별자치도, 24211, 대한민국",월곡리
0.0,,21월곡,1.7,2021,4.0,1,1,61,1400438,북부_춘천_2021_03,1028474.8661,1991883.1311,1029014.6266,1991326.0152,21춘천_03,,,,1819.49322936,강원특별자치도,37.92639699438401,127.82400098621338,"월곡리, 춘천시, 강원특별자치도, 24211, 대한민국",월곡리
0.0,,22월곡,1.7,2022,4.0,1,1,61,1400438,북부_춘천_2022_06,1029014.6266,1991326.0152,1029540.4336,1990713.4312,22춘천_06,,,,1762.41806231,강원특별자치도,37.92135871351488,127.8301201047237,"월곡리, 춘천시, 강원특별자치도, 24211, 대한민국",월곡리
0.0,,23품안,1.7,2023,4.0,1,1,61,1400438,북부_춘천_2023_07,1029540.4336,1990713.4312,1029117.9782,1990000.6782,23춘천_07,,,,1797.7592671,강원특별자치도,37.915820640525325,127.83607736832573,"월곡리, 춘천시, 강원특별자치도, 24211, 대한민국",월곡리
0.0,,24품안,1.7,2024,4.0,1,1,61,1400438,북부_춘천_2024_07,1029962.4278,1989512.8985,1029117.9782,1990000.6782,24춘천_07,,,,1752.11420916,강원특별자치도,37.90498657870487,127.84082833902204,"품안리, 춘천시, 강원특별자치도, 24211, 대한민국",품안리
0.0,,24생곡,2.0,2024,4.5,1,3,61,1400441,북부_홍천_2024_03,1065664.5889,1964723.9244,1065300.7255,1965328.6703,24홍천_03,,,,2059.59771453,강원특별자치도,37.67970057225545,128.2446784251523,"피리골길, 서석면, 홍천군, 강원특별자치도, 25167, 대한민국",서석면
0.0,,20병지방,3.04,2020,4.0,1,1,61,1400441,북부_홍천_2020_07,1053681.0728,1954915.0477,1054801.6844,1956004.279,20홍천_07,,,,3237.36546549,강원특별자치도,37.59207345969807,128.10806461693855,"율동리, 갑천면, 횡성군, 강원특별자치도, 25258, 대한민국",갑천면
0.0,,21춘당,1.7,2021,4.0,1,1,61,1400441,북부_홍천_2021_10,1054801.6844,1956004.279,1054561.5155,1956980.3488,21홍천_10,,,,1768.16438598,강원특별자치도,37.601824613924826,128.12083907203225,"초현리, 청일면, 횡성군, 강원특별자치도, 25256, 대한민국",청일면
0.0,,22춘당,0.7,2022,4.0,1,1,61,1400441,북부_홍천_2022_05,1054561.5155,1956980.3488,1054610.5916,1956928.4034,22홍천_05,,,,859.397858562,강원특별자치도,37.61063619067849,128.11819118828635,"초현리, 청일면, 횡성군, 강원특별자치도, 25256, 대한민국",청일면
0.0,,95화방-늘목재,6.68,1995,4.0,1,1,61,1400441,북부_홍천_1995_03,1051856.5889,1961499.4481,1050483.2906,1961833.2802,95홍천_03,,,,2450.15635463,강원특별자치도,37.65152334940506,128.08786618802483,"늘목재길, 갑천면, 횡성군, 강원특별자치도, 25155, 대한민국",갑천면
0.0,,24노천,1.5,2024,4.5,1,3,61,1400441,북부_홍천_2024_02,1051071.5734,1961630.0663,1050405.47017,1961145.30997,24홍천_02,,,,1495.09618367,강원특별자치도,37.652744618253095,128.07897651128656,"늘목재길, 영귀미면, 홍천군, 강원특별자치도, 25155, 대한민국",영귀미면
0.0,노천-좌운,96노천-좌운,9.28,1996,4.0,1,1,61,1400441,북부_홍천_1996_01,1052478.0369,1961672.1661,1051394.5298,1963254.3753,96홍천_01,,,,5913.44451236,강원특별자치도,37.6530447310189,128.09492323387943,"영귀미면, 홍천군, 강원특별자치도, 대한민국",영귀미면
0.0,,95노천,9.7,1995,4.0,1,1,61,1400441,북부_홍천_1995_02,1051394.5298,1963254.3753,1052917.9689,1966347.8051,95홍천_02,,,,9438.2253749,강원특별자치도,37.66736641564333,128.0827519835552,"영귀미면, 홍천군, 강원특별자치도, 대한민국",영귀미면
0.0,,76어론,7.17,1976,4.0,1,1,61,1400441,북부_홍천_1976_03,1052981.1946,1966382.9196,1055229.3212,1966984.5056,76홍천_03,,,,3899.06363069,강원특별자치도,37.69547339210367,128.1009693943852,"공작산로, 서석면, 홍천군, 강원특별자치도, 25155, 대한민국",서석면
0.0,,93노천,13.22,1993,4.0,1,1,61,1400441,북부_홍천_1993_03,1052669.0375,1966275.6823,1050177.708,1967611.3322,93홍천_03,,,,12880.8095917,강원특별자치도,37.6945248672252,128.0974209965001,"공작산로, 노천리, 영귀미면, 홍천군, 강원특별자치도, 25155, 대한민국",영귀미면
0.0,,17군업,3.0,2017,4.0,1,1,61,1400441,북부-홍천-2017-01,1048566.3585,1966868.2808,1047183.6903,1967003.7831,17홍천_01,,,,2986.62535336,강원특별자치도,37.70009250312389,128.05092619179243,"군업리, 화촌면, 홍천군, 강원특별자치도, 25159, 대한민국",화촌면
0.0,,76도광터,2.5,1976,4.0,1,1,61,1400441,북부_홍천_1976_01,1049906.3929,1967192.5788,1047749.2624,1967887.2721,76홍천_01,,,,2408.39071698,강원특별자치도,37.702943373997385,128.0661488080283,"화촌면, 홍천군, 강원특별자치도, 25159, 대한민국",화촌면
0.0,,92군업,11.22,1992,4.0,1,1,61,1400441,북부_홍천_1992_03,1047953.2297,1971369.9613,1049906.3929,1967192.5788,92홍천_03,,,,12236.1350779,강원특별자치도,37.74069808713789,128.04426806128464,"군들길, 군업리, 화촌면, 홍천군, 강원특별자치도, 25159, 대한민국",화촌면
0.0,,93장평(솔재),10.71,1993,4.0,1,1,61,1400441,북부_홍천_1993_02,1051037.7122,1968544.6493,1054358.5675,1969925.1597,93홍천_02,,,,10970.4355846,강원특별자치도,37.71506711260915,128.07907695848652,"장평리, 화촌면, 홍천군, 강원특별자치도, 25159, 대한민국",화촌면
0.0,((자료부재-임도화)),08어론,2.1,2008,4.0,1,1,61,1400441,북부_홍천_2008_02,1054358.5675,1969925.1597,1055726.3231,1969268.1069,08홍천_02,,,,2409.7655479,강원특별자치도,37.727318306478224,128.11685681222374,"구룡령로, 장평리, 화촌면, 홍천군, 강원특별자치도, 25159, 대한민국",화촌면
0.0,,22신봉,1.1,2022,4.5,1,3,61,1400441,북부_홍천_2022_16,1043226.9627,1965867.3462,1043781.2532,1966087.6113,22홍천_16,,,,1116.53932342,강원특별자치도,37.691338472332966,127.99029999814326,"신봉리, 영귀미면, 홍천군, 강원특별자치도, 25154, 대한민국",영귀미면
0.0,,23신봉,2.2,2023,4.5,1,3,61,1400441,북부_홍천_2023_01,1043781.2532,1966087.6113,1043554.99383,1967171.03649,23홍천_01,,,,2172.40712533,강원특별자치도,37.693297422314146,127.99660003894861,"신봉리, 영귀미면, 홍천군, 강원특별자치도, 25154, 대한민국",영귀미면
0.0,,24신봉,1.5,2024,4.5,1,3,61,1400441,북부_홍천_2024_01,1043554.99383,1967171.03649,1043840.74441,1967557.32187,24홍천_01,,,,1631.91901231,강원특별자치도,37.70307314262527,127.99409852616445,"신봉리, 영귀미면, 홍천군, 강원특별자치도, 25154, 대한민국",영귀미면
0.0,,15삽교,0.38,2015,3.5,1,2,61,1400441,북부_홍천_2015_09,1068416.3582,1946127.8258,1068884.0329,1946278.9572,15홍천_09,,,,508.02693555,강원특별자치도,37.51189846956059,128.27414432208977,"자포곡리, 둔내면, 횡성군, 강원특별자치도, 25261, 대한민국",둔내면
0.0,청태산테마임도,91청태산(삽교),1.06,1991,4.0,1,1,61,1400441,북부_홍천_1991_05,1069825.8408,1947378.543,1070215.3505,1947989.0776,91홍천_05,4,2012,휴양형_12_청태산,994.913412043,강원특별자치도,37.52306531014082,128.2902103796298,"청태산자연휴양림, 청태산로, 둔내면, 횡성군, 강원특별자치도, 25261, 대한민국",둔내면
0.0,삽교테마임도,90삽교,10.16,1990,4.0,1,1,61,1400441,북부_홍천_1990_04,1069176.6093,1948716.3141,1068925.3976,1951548.4248,90홍천_04,4,2011,휴양형_11_삽교,10089.1054779,강원특별자치도,37.535171272603264,128.28298976631248,"삽교리, 둔내면, 횡성군, 강원특별자치도, 25261, 대한민국",둔내면
0.0,청태산테마임도,77삽교,3.0,1977,4.0,1,1,61,1400441,북부_홍천_1977_01,1069649.8077,1947588.3699,1070557.2149,1947640.9257,77홍천_01,4,2012,휴양형_12_청태산,2904.84661344,강원특별자치도,37.52496974425243,128.28823830515404,"삽교리, 둔내면, 횡성군, 강원특별자치도, 25261, 대한민국",둔내면
0.0,청태산테마임도,89삽교,10.0,1989,4.0,1,1,61,1400441,북부_홍천_1989_04,1068408.2514,1946219.872,1069658.2009,1948810.8057,89홍천_04,4,2012,휴양형_12_청태산,9956.14291602,강원특별자치도,37.512728666821204,128.27406116774793,"자포곡리, 둔내면, 횡성군, 강원특별자치도, 25261, 대한민국",둔내면
0.0,,05삽교,0.84,2005,4.0,1,1,61,1400441,북부_홍천_2005_01,1069725.5905,1949980.5951,1070064.4105,1950090.5312,05홍천_01,,,,833.2594412,강원특별자치도,37.546524556220305,128.2893231050463,"삽교리, 둔내면, 횡성군, 강원특별자치도, 25261, 대한민국",둔내면
0.0,,21춘당-속실,2.06,2021,4.0,1,1,61,1400441,북부_홍천_2021_09,1058944.8811,1957809.8007,1059600.86205,1958306.79388,21홍천_09,,,,2082.37005215,강원특별자치도,37.617841337148874,128.16791934700396,"춘당리, 청일면, 횡성군, 강원특별자치도, 25253, 대한민국",청일면
0.0,,22춘당-속실,1.9,2022,4.0,1,1,61,1400441,북부_홍천_2022_06,1059600.86205,1958306.79388,1060089.00604,1958112.44777,22홍천_06,,,,1785.93936458,강원특별자치도,37.62227835949217,128.17539248356633,"춘당리, 청일면, 횡성군, 강원특별자치도, 25253, 대한민국",청일면
0.0,,23춘당,2.0,2023,4.0,1,1,61,1400441,북부_홍천_2023_13,1060089.00604,1958112.44777,1060771.3445,1958321.1068,23홍천_13,,,,1924.11126389,강원특별자치도,37.62049495853186,128.1809077613459,"속실리, 청일면, 횡성군, 강원특별자치도, 25253, 대한민국",청일면
0.0,,20속실,2.0,2020,4.0,1,1,61,1400441,북부_홍천_2020_06,1060628.0364,1959010.4729,1061303.5776,1958404.4648,20홍천_06,,,,1978.71388199,강원특별자치도,37.628553300203585,128.18708996255847,"속실리, 청일면, 횡성군, 강원특별자치도, 25253, 대한민국",청일면
0.0,,19속실,3.5,2019,4.0,1,1,61,1400441,북부-홍천-2019-06,1061303.5776,1958404.4648,1062185.6709,1958537.6001,19홍천_06,,,,3455.48194373,강원특별자치도,37.62304663624961,128.19469443771254,"속실리, 청일면, 횡성군, 강원특별자치도, 25253, 대한민국",청일면
0.0,,98속실,1.8,1998,4.0,1,1,61,1400441,북부_홍천_1998_01,1062185.6709,1958537.6001,1062689.6064,1959107.2858,98홍천_01,,,,1730.45033446,강원특별자치도,37.6241872865698,128.20470099141363,"속실리, 청일면, 횡성군, 강원특별자치도, 25253, 대한민국",청일면
0.0,,86속실,4.0,1986,4.0,1,1,61,1400441,북부_홍천_1986_01,1062689.6064,1959107.2858,1059911.5772,1960099.4396,86홍천_01,,,,4000.84170523,강원특별자치도,37.62928749483117,128.21046016410543,"속실리, 청일면, 횡성군, 강원특별자치도, 25253, 대한민국",청일면
0.0,,18방내,3.0,2018,4.0,1,1,61,1400441,북부-홍천-2018-01,1065342.2374,1975784.784,1066804.2575,1977566.4345,18홍천_01,,,,3312.79471795,강원특별자치도,37.77941024003799,128.24201709822788,"내면, 홍천군, 강원특별자치도, 대한민국",내면
0.0,,19수하,1.79,2019,3.0,1,2,61,1400441,북부-홍천-2019-07,1061840.1618,1975981.5024,1062513.7547,1976989.3185,19홍천_07,,,,1973.44306585,강원특별자치도,37.78142689242982,128.20226762481516,"수하리, 서석면, 홍천군, 강원특별자치도, 25165, 대한민국",서석면
0.0,,18수하,3.98,2018,4.0,1,1,61,1400441,북부-홍천-2018-02,1062514.8635,1975802.0512,1063341.9418,1977482.5218,18홍천_02,,,,3960.29232208,강원특별자치도,37.77976366757417,128.2099136483507,"수하리, 서석면, 홍천군, 강원특별자치도, 25165, 대한민국",서석면
0.0,,89방내,1.69,1989,4.0,1,1,61,1400441,북부_홍천_1989_06,1063664.779,1977228.9692,1063411.4131,1978605.0537,89홍천_06,,,,1709.11237921,강원특별자치도,37.79254438427819,128.22309634596584,"내면, 홍천군, 강원특별자치도, 대한민국",내면
0.0,,14방내,3.9,2014,4.0,1,1,61,1400441,북부_홍천_2014_01,1065288.9893,1977516.5513,1063664.779,1977228.9692,14홍천_01,,,,3710.69790798,강원특별자치도,37.79502154705947,128.24156842175927,"방내리, 내면, 홍천군, 강원특별자치도, 25169, 대한민국",내면
0.0,,20방내,1.9,2020,4.0,1,1,61,1400441,북부_홍천_2020_05,1066056.4341,1975232.8369,1066405.3671,1975885.2625,20홍천_05,,,,1968.87793584,강원특별자치도,37.77438448465751,128.25007651444164,"내면, 홍천군, 강원특별자치도, 대한민국",내면
0.0,,17방내,3.9,2017,4.0,1,1,61,1400441,북부-홍천-2017-02,1065405.3141,1975765.1534,1065288.9893,1977516.5513,17홍천_02,,,,3946.75384975,강원특별자치도,37.77922880700251,128.24273156265096,"내면, 홍천군, 강원특별자치도, 대한민국",내면
0.0,,19방내,2.0,2019,4.0,1,1,61,1400441,북부-홍천-2019-08,1066405.3671,1975885.2625,1065405.3141,1975765.1534,19홍천_08,,,,1527.58635401,강원특별자치도,37.78023915767758,128.25409809408265,"방내리, 내면, 홍천군, 강원특별자치도, 25169, 대한민국",내면
0.0,,22방내1,2.0,2022,4.0,1,1,61,1400441,북부_홍천_2022_07,1066388.649,1974404.1089,1066056.4341,1975232.8369,22홍천_07,,,,2064.27610071,강원특별자치도,37.76689152667365,128.25377271813576,"내면, 홍천군, 강원특별자치도, 대한민국",내면
0.0,,23방내2,2.0,2023,4.0,1,1,61,1400441,북부_홍천_2023_11,1067543.96138,1974811.07082,1067318.6682,1976120.956,23홍천_11,,,,1965.38598265,강원특별자치도,37.770474619935456,128.2669268752182,"방내리, 내면, 홍천군, 강원특별자치도, 25169, 대한민국",내면
0.0,,14부귀,1.66,2014,3.0,1,2,61,1400438,북부_춘천_2014_04,1032296.368,1997676.6173,1031814.8887,1996947.6889,14춘천_04,,,,1636.56219171,강원특별자치도,37.9784847042919,127.86774334348107,"부귀로, 북산면, 춘천시, 강원특별자치도, 24208, 대한민국",북산면
0.0,,15오항,1.19,2015,3.0,1,2,61,1400438,북부_춘천_2015_07,1032850.3578,1997260.8518,1032388.3543,1997962.7159,15춘천_07,,,,1335.66898168,강원특별자치도,37.974717626727525,127.87403222161171,"부귀로, 북산면, 춘천시, 강원특별자치도, 24208, 대한민국",북산면
0.0,,94부귀,10.56,1994,4.0,1,1,61,1400438,북부_춘천_1994_01,1030198.9855,2001650.0995,1032339.5261,1997793.3635,94춘천_01,,,,10364.089944,강원특별자치도,38.01436891444707,127.84402909918228,"북산면, 춘천시, 강원특별자치도, 대한민국",북산면
0.0,,16부귀,2.91,2016,3.0,1,2,61,1400438,북부_춘천_2016_02,1031499.3846,1999756.5538,1031671.9525,2001078.0998,16춘천_02,,,,2932.556029,강원특별자치도,37.99725865515157,127.85875991287399,"오항리, 춘천시, 강원특별자치도, 24208, 대한민국",오항리
